X,Y,FID,GIS_DB_ID,Mode,Source,Route,Direction,Stop_Code,Stop,Lat,Lon,Sign_Up,WKDY_ONS,WKDY_OFFS
-8367243.92078799,4862979.26669667,1,325478W,Bus,UTA,3,Westbound,25478,CECIL B MOORE AV & 18TH ST,39.979607,-75.164231,Fall 2016,27,34
-8367416.6886377,4863005.99712969,2,325479W,Bus,UTA,3,Westbound,25479,CECIL B MOORE AV & 19TH ST,39.979791,-75.165783,Fall 2016,62,111
-8367591.23759926,4863031.27488801,3,354W,Bus,UTA,3,Westbound,54,CECIL B MOORE AV & 20TH ST,39.979965,-75.167351,Fall 2016,21,62
-8367792.83719709,4863064.25229016,4,325480W,Bus,UTA,3,Westbound,25480,CECIL B MOORE AV & 21ST ST,39.980192,-75.169162,Fall 2016,17,49
-8367973.84268912,4863091.85460527,5,325481W,Bus,UTA,3,Westbound,25481,CECIL B MOORE AV & 22ND ST,39.980382,-75.170788,Fall 2016,55,153
-8368129.80129572,4863115.67982317,6,325482W,Bus,UTA,3,Westbound,25482,CECIL B MOORE AV & RIDGE AV,39.980546,-75.172189,Fall 2016,82,332
-8368330.7329766,4863148.80278211,7,325483W,Bus,UTA,3,Westbound,25483,CECIL B MOORE AV & 24TH ST,39.980774,-75.173994,Fall 2016,19,74
-8368512.07242711,4863179.45614521,8,325484W,Bus,UTA,3,Westbound,25484,CECIL B MOORE AV & 25TH ST,39.980985,-75.175623,Fall 2016,18,136
-8368689.07041746,4863209.23793935,9,325485W,Bus,UTA,3,Westbound,25485,CECIL B MOORE AV & 26TH ST,39.98119,-75.177213,Fall 2016,27,263
-8368868.07215866,4863240.32732222,10,325486W,Bus,UTA,3,Westbound,25486,CECIL B MOORE AV & 27TH ST,39.981404,-75.178821,Fall 2016,15,119
-8369028.14958642,4863266.76790202,11,325487W,Bus,UTA,3,Westbound,25487,CECIL B MOORE AV & 28TH ST,39.981586,-75.180259,Fall 2016,14,200
-8369199.02500479,4863295.96884398,12,325488W,Bus,UTA,3,Westbound,25488,CECIL B MOORE AV & 29TH ST,39.981787,-75.181794,Fall 2016,31,339
-8369383.03612307,4863327.20377748,13,325489W,Bus,UTA,3,Westbound,25489,CECIL B MOORE AV & 30TH ST,39.982002,-75.183447,Fall 2016,3,74
-8369565.2661295,4863358.14825037,14,325490W,Bus,UTA,3,Westbound,25490,CECIL B MOORE AV & 31ST ST,39.982215,-75.185084,Fall 2016,6,97
-8369746.27162153,4863386.76834169,15,325491W,Bus,UTA,3,Westbound,25491,CECIL B MOORE AV & 32ND ST,39.982412,-75.18671,Fall 2016,9,82
-8369910.46787045,4863407.54338352,16,355W,Bus,UTA,3,Westbound,55,33RD ST & CECIL B MOORE,39.982555,-75.188185,Fall 2016,0,196
-8369875.51355034,4863404.78306077,17,355E,Bus,UTA,3,Eastbound,55,33RD ST & CECIL B MOORE AV L,39.982536,-75.187871,Fall 2016,185,0
-8369736.03022838,4863386.18722226,18,325369E,Bus,UTA,3,Eastbound,25369,CECIL B MOORE AV & 32ND ST,39.982408,-75.186618,Fall 2016,82,3
-8369565.82272695,4863354.80682377,19,325370E,Bus,UTA,3,Eastbound,25370,CECIL B MOORE AV & 31ST ST,39.982192,-75.185089,Fall 2016,80,3
-8369402.40571447,4863327.34905647,20,325371E,Bus,UTA,3,Eastbound,25371,CECIL B MOORE AV & GLENWOOD,39.982003,-75.183621,Fall 2016,45,3
-8369224.40584869,4863297.1310723,21,325372E,Bus,UTA,3,Eastbound,25372,CECIL B MOORE AV & 29TH ST,39.981795,-75.182022,Fall 2016,328,29
-8369040.17209143,4863267.78484881,22,325373E,Bus,UTA,3,Eastbound,25373,CECIL B MOORE AV & 28TH ST,39.981593,-75.180367,Fall 2016,201,18
-8368875.75320353,4863239.45565595,23,325374E,Bus,UTA,3,Eastbound,25374,CECIL B MOORE AV & 27TH ST,39.981398,-75.17889,Fall 2016,136,12
-8368702.87403432,4863211.27182123,24,325375E,Bus,UTA,3,Eastbound,25375,CECIL B MOORE AV & 26TH ST,39.981204,-75.177337,Fall 2016,260,30
-8368524.65152956,4863180.18252937,25,325376E,Bus,UTA,3,Eastbound,25376,CECIL B MOORE AV & 25TH ST,39.98099,-75.175736,Fall 2016,157,17
-8368348.09881717,4863150.40082239,26,325377E,Bus,UTA,3,Eastbound,25377,CECIL B MOORE AV & 24TH ST,39.980785,-75.17415,Fall 2016,95,19
-8368188.68930635,4863123.96055255,27,325378E,Bus,UTA,3,Eastbound,25378,CECIL B MOORE AV & RIDGE AV,39.980603,-75.172718,Fall 2016,306,71
-8368000.55936691,4863088.6585438,28,325379E,Bus,UTA,3,Eastbound,25379,CECIL B MOORE AV & 22ND ST,39.98036,-75.171028,Fall 2016,247,37
-8367815.54637321,4863054.95468552,29,325380E,Bus,UTA,3,Eastbound,25380,CECIL B MOORE AV & 21ST ST,39.980128,-75.169366,Fall 2016,46,9
-8367616.1731652,4863019.21709872,30,357E,Bus,UTA,3,Eastbound,57,CECIL B MOORE AV & 20TH ST,39.979882,-75.167575,Fall 2016,93,20
-8367433.16392234,4862985.5134762,31,325381E,Bus,UTA,3,Eastbound,25381,CECIL B MOORE AV & 19TH ST,39.97965,-75.165931,Fall 2016,102,62
-8367254.16218114,4862957.1850889,32,325382E,Bus,UTA,3,Eastbound,25382,CECIL B MOORE AV & 18TH ST,39.979455,-75.164323,Fall 2016,50,16
-8367077.72078823,4862924.93440791,33,325383E,Bus,UTA,3,Eastbound,25383,CECIL B MOORE AV & 17TH ST,39.979233,-75.162738,Fall 2016,42,26
-8366901.27939533,4862896.89673885,34,325384E,Bus,UTA,3,Eastbound,25384,CECIL B MOORE AV & 16TH ST,39.97904,-75.161153,Fall 2016,42,38
-8366724.94932191,4862867.6969708,35,325385E,Bus,UTA,3,Eastbound,25385,CECIL B MOORE AV & 15TH ST,39.978839,-75.159569,Fall 2016,32,44
-8366563.0907823,4862841.98381334,36,358E,Bus,UTA,3,Eastbound,58,CECIL B MOORE AV & BROAD ST,39.978662,-75.158115,Fall 2016,593,952
-8366322.19540422,4862801.45303936,37,325386E,Bus,UTA,3,Eastbound,25386,CECIL B MOORE AV & 13TH ST,39.978383,-75.155951,Fall 2016,71,21
-8366132.39567242,4862769.05759348,38,325387E,Bus,UTA,3,Eastbound,25387,CECIL B MOORE AV & 12TH ST,39.97816,-75.154246,Fall 2016,55,30
-8365951.39018039,4862737.6791458,39,325388E,Bus,UTA,3,Eastbound,25388,CECIL B MOORE AV & 11TH ST,39.977944,-75.15262,Fall 2016,46,67
-8365750.01322154,4862711.23997521,40,325389E,Bus,UTA,3,Eastbound,25389,CECIL B MOORE AV & 10TH ST -,39.977762,-75.150811,Fall 2016,15,29
-8365579.58308114,4862686.39884063,41,325390E,Bus,UTA,3,Eastbound,25390,CECIL B MOORE AV & 9TH ST,39.977591,-75.14928,Fall 2016,8,17
-8365468.8201878,4862674.6320091,42,325391E,Bus,UTA,3,Eastbound,25391,CECIL B MOORE AV & 8TH ST,39.97751,-75.148285,Fall 2016,47,65
-8365306.07109226,4862701.50689168,43,318529E,Bus,UTA,3,Eastbound,18529,7TH ST & CECIL B MOORE AV -,39.977695,-75.146823,Fall 2016,69,90
-8365255.64336293,4862867.84224307,44,318530E,Bus,UTA,3,Eastbound,18530,7TH ST & MONTGOMERY AV,39.97884,-75.14637,Fall 2016,9,13
-8365195.64215739,4863048.12676265,45,318531E,Bus,UTA,3,Eastbound,18531,7TH ST & BERKS ST,39.980081,-75.145831,Fall 2016,64,92
-8365038.01375843,4863042.46104298,46,325393E,Bus,UTA,3,Eastbound,25393,BERKS ST & 6TH ST,39.980042,-75.144415,Fall 2016,41,34
-8364898.97571443,4863019.79819666,47,325394E,Bus,UTA,3,Eastbound,25394,BERKS ST & GERMANTOWN AV,39.979886,-75.143166,Fall 2016,55,44
-8364769.39982715,4862998.15232124,48,326261E,Bus,UTA,3,Eastbound,26261,BERKS ST & 5TH ST,39.979737,-75.142002,Fall 2016,22,8
-8364634.59192379,4862976.07067145,49,325395E,Bus,UTA,3,Eastbound,25395,BERKS ST & 4TH ST,39.979585,-75.140791,Fall 2016,81,46
-8364485.31248664,4862954.27961785,50,325396E,Bus,UTA,3,Eastbound,25396,BERKS ST & 3RD ST,39.979435,-75.13945,Fall 2016,12,7
-8364359.74410103,4862943.81992911,51,325397E,Bus,UTA,3,Eastbound,25397,BERKS ST & AMERICAN ST,39.979363,-75.138322,Fall 2016,16,40
-8364206.56848169,4862942.51246879,52,325398E,Bus,UTA,3,Eastbound,25398,BERKS ST & 2ND ST,39.979354,-75.136946,Fall 2016,9,12
-8364026.89882355,4862897.04201154,53,325399E,Bus,UTA,3,Eastbound,25399,BERKS ST & MASCHER ST,39.979041,-75.135332,Fall 2016,17,20
-8363839.65944004,4862872.20041202,54,325401E,Bus,UTA,3,Eastbound,25401,BERKS ST & FRONT ST,39.97887,-75.13365,Fall 2016,72,313
-8363785.11288955,4863055.09996052,55,325402E,Bus,UTA,3,Eastbound,25402,FRONT ST & NORRIS ST,39.980129,-75.13316,Fall 2016,11,17
-8363746.81898472,4863260.23038947,56,325403E,Bus,UTA,3,Eastbound,25403,FRONT ST & CORAL ST,39.981541,-75.132816,Fall 2016,30,26
-8363709.63827479,4863464.20280953,57,325404E,Bus,UTA,3,Eastbound,25404,FRONT ST & SUSQUEHANNA AV,39.982945,-75.132482,Fall 2016,37,30
-8363657.31811412,4863699.124957,58,319004E,Bus,UTA,3,Eastbound,19004,FRONT ST & DAUPHIN ST,39.984562,-75.132012,Fall 2016,51,64
-8363577.05676126,4863892.0645587,59,321639E,Bus,UTA,3,Eastbound,21639,FRONT ST & YORK ST,39.98589,-75.131291,Fall 2016,44,42
-8363371.0043838,4864102.87860702,60,325405E,Bus,UTA,3,Eastbound,25405,KENSINGTON AV & CUMBERLAND S,39.987341,-75.12944,Fall 2016,77,56
-8363149.81255559,4864283.04026704,61,319005E,Bus,UTA,3,Eastbound,19005,KENSINGTON AV & HUNTINGDON S,39.988581,-75.127453,Fall 2016,69,47
-8362940.08663494,4864445.7697387,62,325406E,Bus,UTA,3,Eastbound,25406,KENSINGTON AV & LEHIGH AV,39.989701,-75.125569,Fall 2016,41,39
-8362626.27699039,4864672.43309213,63,319006E,Bus,UTA,3,Eastbound,19006,KENSINGTON AV & SOMERSET ST,39.991261,-75.12275,Fall 2016,186,129
-8362366.79125735,4864857.69063903,64,38970E,Bus,UTA,3,Eastbound,8970,KENSINGTON AV & CAMBRIA ST,39.992536,-75.120419,Fall 2016,83,99
-8362145.26547068,4865018.68588832,65,325407E,Bus,UTA,3,Eastbound,25407,KENSINGTON AV & ORLEANS ST,39.993644,-75.118429,Fall 2016,47,47
-8361860.73285221,4865222.2585303,66,317743E,Bus,UTA,3,Eastbound,17743,KENSINGTON AV & CLEARFIELD S,39.995045,-75.115873,Fall 2016,57,93
-8361622.73178089,4865392.85009866,67,321175E,Bus,UTA,3,Eastbound,21175,KENSINGTON AV & ALLEGHENY AV,39.996219,-75.113735,Fall 2016,256,287
-8361330.96339552,4865599.19134889,68,317744E,Bus,UTA,3,Eastbound,17744,KENSINGTON AV & WESTMORELAND,39.997639,-75.111114,Fall 2016,48,43
-8361069.58523114,4865787.95375752,69,317745E,Bus,UTA,3,Eastbound,17745,KENSINGTON AV & ONTARIO ST,39.998938,-75.108766,Fall 2016,46,53
-8360835.36902251,4865957.97378126,70,319007E,Bus,UTA,3,Eastbound,19007,KENSINGTON AV & TIOGA ST,40.000108,-75.106662,Fall 2016,52,70
-8360580.67002758,4866140.78488604,71,317747E,Bus,UTA,3,Eastbound,17747,KENSINGTON AV & VENANGO ST,40.001366,-75.104374,Fall 2016,24,43
-8360305.82220481,4866339.29424027,72,326262E,Bus,UTA,3,Eastbound,26262,KENSINGTON AV & SEDGLEY AV,40.002732,-75.101905,Fall 2016,19,41
-8360037.542232,4866533.01180939,73,325408E,Bus,UTA,3,Eastbound,25408,KENSINGTON AV & CASTOR AV,40.004065,-75.099495,Fall 2016,10,28
-8359714.93834768,4866759.43218664,74,319008E,Bus,UTA,3,Eastbound,19008,KENSINGTON AV & TORRESDALE A,40.005623,-75.096597,Fall 2016,95,186
-8359442.6508732,4866946.61801763,75,325409E,Bus,UTA,3,Eastbound,25409,KENSINGTON AV & HUNTING PARK,40.006911,-75.094151,Fall 2016,44,54
-8359158.56353269,4867147.759524,76,325410E,Bus,UTA,3,Eastbound,25410,KENSINGTON AV & ADAMS AV,40.008295,-75.091599,Fall 2016,9,36
-8358998.04082697,4867268.38825063,77,325411E,Bus,UTA,3,Eastbound,25411,KENSINGTON AV & WOMRATH ST,40.009125,-75.090157,Fall 2016,7,19
-8358863.56688209,4867403.69763996,78,323961E,Bus,UTA,3,Eastbound,23961,FRANKFORD AV & RUAN ST,40.010056,-75.088949,Fall 2016,33,56
-8358774.95656742,4867528.10833107,79,323962E,Bus,UTA,3,Eastbound,23962,FRANKFORD AV & CHURCH ST,40.010912,-75.088153,Fall 2016,23,35
-8358674.10110876,4867706.44273211,80,323963E,Bus,UTA,3,Eastbound,23963,FRANKFORD AV & UNITY ST,40.012139,-75.087247,Fall 2016,57,96
-8358525.37826906,4867897.86146342,81,323964E,Bus,UTA,3,Eastbound,23964,FRANKFORD AV & SELLERS ST,40.013456,-75.085911,Fall 2016,41,78
-8358439.21698319,4868075.18507212,82,319010E,Bus,UTA,3,Eastbound,19010,FRANKFORD AV & ORTHODOX ST,40.014676,-75.085137,Fall 2016,39,66
-8358294.61296464,4868341.61248607,83,323965E,Bus,UTA,3,Eastbound,23965,FRANKFORD AV & MARGARET ST,40.016509,-75.083838,Fall 2016,100,258
-8358177.05958237,4868512.40305388,84,323966E,Bus,UTA,3,Eastbound,23966,FRANKFORD AV & FOULKROD ST,40.017684,-75.082782,Fall 2016,20,42
-8358043.92147138,4868704.2734121,85,323967E,Bus,UTA,3,Eastbound,23967,FRANKFORD AV & HARRISON ST,40.019004,-75.081586,Fall 2016,11,55
-8357925.1435747,4868876.81454771,86,323968E,Bus,UTA,3,Eastbound,23968,FRANKFORD AV & WAKELING ST,40.020191,-75.080519,Fall 2016,9,65
-8357806.92227548,4869041.79982242,87,323969E,Bus,UTA,3,Eastbound,23969,FRANKFORD AV & DYRE ST,40.021326,-75.079457,Fall 2016,6,61
-8357695.93674316,4869235.71553924,88,320844E,Bus,UTA,3,Eastbound,20844,FRANKFORD TRANSPORTATION,40.02266,-75.07846,Fall 2016,0,929
-8364449.13365213,4871875.32331264,89,421534S,Bus,UTA,4,Southbound,21534,11TH ST & NEDRO AV - FS,40.040816,-75.139125,Fall 2016,167,0
-8364387.12869576,4871582.19272375,90,416044S,Bus,UTA,4,Southbound,16044,CHEW AV & 11TH ST - FS,40.0388,-75.138568,Fall 2016,11,0
-8364323.56526652,4871451.47904981,91,416045S,Bus,UTA,4,Southbound,16045,CHEW AV & 10TH ST,40.037901,-75.137997,Fall 2016,6,1
-8364328.79728258,4871367.43935536,92,428699S,Bus,UTA,4,Southbound,28699,10TH ST & OLNEY AV,40.037323,-75.138044,Fall 2016,94,5
-8364360.18937899,4871223.93377296,93,416053S,Bus,UTA,4,Southbound,16053,10TH ST & TABOR RD,40.036336,-75.138326,Fall 2016,18,1
-8364397.14744993,4871094.82414246,94,416054S,Bus,UTA,4,Southbound,16054,10TH ST & CLARKSON AV,40.035448,-75.138658,Fall 2016,17,2
-8364462.38067154,4870949.43242699,95,416058S,Bus,UTA,4,Southbound,16058,WAGNER AV & WARNOCK ST - FS,40.034448,-75.139244,Fall 2016,12,3
-8364484.75588919,4870810.58532883,96,416061S,Bus,UTA,4,Southbound,16061,10TH ST & WAGNER AV - FS,40.033493,-75.139445,Fall 2016,17,1
-8364458.70712834,4870659.23693707,97,416067S,Bus,UTA,4,Southbound,16067,10TH ST & FISHER AV - FS,40.032452,-75.139211,Fall 2016,57,9
-8364478.41067821,4870482.59404104,98,416071S,Bus,UTA,4,Southbound,16071,10TH ST & DUNCANNON AV,40.031237,-75.139388,Fall 2016,48,12
-8364505.68395346,4870281.82103929,99,416133S,Bus,UTA,4,Southbound,16133,10TH ST & LINDLEY AV,40.029856,-75.139633,Fall 2016,65,28
-8364532.06667277,4870068.98574255,100,416134S,Bus,UTA,4,Southbound,16134,10TH ST & RUSCOMB ST,40.028392,-75.13987,Fall 2016,32,14
-8364537.96660578,4869856.00963899,101,416135S,Bus,UTA,4,Southbound,16135,10TH ST & ROCKLAND ST,40.026927,-75.139923,Fall 2016,42,13
-8364440.78469032,4869768.20375791,102,428700S,Bus,UTA,4,Southbound,28700,ROCKLAND ST & 9TH ST,40.026323,-75.13905,Fall 2016,87,15
-8364452.02795889,4869574.42299994,103,416136S,Bus,UTA,4,Southbound,16136,9TH ST & LOUDON ST - FS,40.02499,-75.139151,Fall 2016,21,3
-8364482.1955409,4869375.12205904,104,416137S,Bus,UTA,4,Southbound,16137,9TH ST & WYOMING AV,40.023619,-75.139422,Fall 2016,10,5
-8364522.93847453,4869141.5191253,105,416138S,Bus,UTA,4,Southbound,16138,9TH ST & COURTLAND ST,40.022012,-75.139788,Fall 2016,24,12
-8364571.91905048,4868873.47126215,106,416139S,Bus,UTA,4,Southbound,16139,9TH ST & WINGOHOCKING ST - F,40.020168,-75.140228,Fall 2016,39,26
-8364599.08100623,4868700.34875396,107,416140S,Bus,UTA,4,Southbound,16140,9TH ST & CAYUGA ST,40.018977,-75.140472,Fall 2016,40,8
-8364635.25984074,4868487.11132898,108,416146S,Bus,UTA,4,Southbound,16146,9TH ST & BRISTOL ST - FS,40.01751,-75.140797,Fall 2016,44,9
-8364671.43867525,4868265.30275734,109,416147S,Bus,UTA,4,Southbound,16147,9TH ST & HUNTING PARK AV,40.015984,-75.141122,Fall 2016,61,15
-8364709.95521906,4868026.05739423,110,416148S,Bus,UTA,4,Southbound,16148,9TH ST & LYCOMING ST,40.014338,-75.141468,Fall 2016,67,8
-8364754.03773741,4867772.42872648,111,416156S,Bus,UTA,4,Southbound,16156,9TH ST & LUZERNE ST - FS,40.012593,-75.141864,Fall 2016,74,20
-8364789.77129396,4867563.13545431,112,416157S,Bus,UTA,4,Southbound,16157,9TH ST & PIKE ST - FS,40.011153,-75.142185,Fall 2016,47,17
-8364822.27658527,4867372.15919629,113,416158S,Bus,UTA,4,Southbound,16158,9TH ST & BUTLER ST,40.009839,-75.142477,Fall 2016,28,12
-8364841.86881565,4867161.71168725,114,4141S,Bus,UTA,4,Southbound,141,9TH ST & ERIE AV,40.008391,-75.142653,Fall 2016,36,39
-8364733.44363162,4867064.19229027,115,418193S,Bus,UTA,4,Southbound,18193,ERIE AV & 8TH ST,40.00772,-75.141679,Fall 2016,17,9
-8364666.54061765,4867085.41103425,116,417425S,Bus,UTA,4,Southbound,17425,ERIE AV & RISING SUN AV,40.007866,-75.141078,Fall 2016,58,14
-8364853.22340371,4866950.54198201,117,416159S,Bus,UTA,4,Southbound,16159,RISING SUN AV & 9TH ST,40.006938,-75.142755,Fall 2016,29,2
-8365275.01295433,4866706.38715469,118,416160S,Bus,UTA,4,Southbound,16160,RISING SUN AV & 11TH ST,40.005258,-75.146544,Fall 2016,30,12
-8365481.51060975,4866584.16666744,119,416161S,Bus,UTA,4,Southbound,16161,RISING SUN AV & OLD YORK RD,40.004417,-75.148399,Fall 2016,12,29
-8365629.00893505,4866501.33080795,120,416162S,Bus,UTA,4,Southbound,16162,RISING SUN AV & GERMANTOWN A,40.003847,-75.149724,Fall 2016,22,33
-8365935.36017371,4866353.53591324,121,417121S,Bus,UTA,4,Southbound,17121,BROAD ST & WESTMORELAND AV -,40.00283,-75.152476,Fall 2016,54,31
-8365981.00116494,4866199.20377115,122,421194S,Bus,UTA,4,Southbound,21194,BROAD ST & ALLEGHENY AV,40.001768,-75.152886,Fall 2016,153,115
-8366027.08743413,4865939.37315811,123,45169S,Bus,UTA,4,Southbound,5169,BROAD ST & CLEARFIELD ST - F,39.99998,-75.1533,Fall 2016,21,7
-8366060.26064238,4865750.02661118,124,417127S,Bus,UTA,4,Southbound,17127,BROAD ST & INDIANA AV,39.998677,-75.153598,Fall 2016,41,15
-8366104.12052176,4865500.23419979,125,417129S,Bus,UTA,4,Southbound,17129,BROAD ST & GLENWOOD AV,39.996958,-75.153992,Fall 2016,24,21
-8366136.06921561,4865304.79309667,126,417132S,Bus,UTA,4,Southbound,17132,BROAD ST & SOMERSET ST,39.995613,-75.154279,Fall 2016,10,5
-8366187.61013985,4865000.08702573,127,417133S,Bus,UTA,4,Southbound,17133,BROAD ST & LEHIGH AV - FS,39.993516,-75.154742,Fall 2016,110,95
-8366215.99661,4864823.10896776,128,417134S,Bus,UTA,4,Southbound,17134,BROAD ST & HUNTINGDON ST,39.992298,-75.154997,Fall 2016,23,12
-8366247.83398437,4864631.60424685,129,417135S,Bus,UTA,4,Southbound,17135,BROAD ST & CUMBERLAND ST,39.99098,-75.155283,Fall 2016,29,13
-8366292.36178069,4864364.54996352,130,417136S,Bus,UTA,4,Southbound,17136,BROAD ST & YORK ST - FS,39.989142,-75.155683,Fall 2016,23,8
-8366320.63693135,4864193.68548657,131,417137S,Bus,UTA,4,Southbound,17137,BROAD ST & DAUPHIN ST,39.987966,-75.155937,Fall 2016,43,20
-8366357.14972433,4863974.44277511,132,417138S,Bus,UTA,4,Southbound,17138,BROAD ST & SUSQUEHANNA AV,39.986457,-75.156265,Fall 2016,74,58
-8366393.7738368,4863754.33319492,133,417158S,Bus,UTA,4,Southbound,17158,BROAD ST & DIAMOND ST,39.984942,-75.156594,Fall 2016,28,15
-8366431.73378316,4863532.19454764,134,417159S,Bus,UTA,4,Southbound,17159,BROAD ST & NORRIS ST,39.983413,-75.156935,Fall 2016,17,17
-8366468.8031736,4863310.93254404,135,417160S,Bus,UTA,4,Southbound,17160,BROAD ST & BERKS ST,39.98189,-75.157268,Fall 2016,8,7
-8366507.09707843,4863085.75303427,136,417161S,Bus,UTA,4,Southbound,17161,BROAD ST & MONTGOMERY AV,39.98034,-75.157612,Fall 2016,11,9
-8366543.38723243,4862874.8153143,137,417162S,Bus,UTA,4,Southbound,17162,BROAD ST & CECIL B MOORE AV,39.978888,-75.157938,Fall 2016,100,86
-8366585.91127791,4862631.05127308,138,45273S,Bus,UTA,4,Southbound,5273,BROAD ST & OXFORD ST - FS,39.97721,-75.15832,Fall 2016,36,38
-8366616.1901794,4862448.59533546,139,417163S,Bus,UTA,4,Southbound,17163,BROAD ST & JEFFERSON ST,39.975954,-75.158592,Fall 2016,24,19
-8366647.80491479,4862258.58905395,140,45252S,Bus,UTA,4,Southbound,5252,BROAD ST & MASTER ST,39.974646,-75.158876,Fall 2016,28,22
-8366679.86492814,4862066.55276106,141,45328S,Bus,UTA,4,Southbound,5328,BROAD ST & THOMPSON ST,39.973324,-75.159164,Fall 2016,10,14
-8366721.16445922,4861824.98741962,142,4143S,Bus,UTA,4,Southbound,143,BROAD ST & GIRARD AV,39.971661,-75.159535,Fall 2016,80,111
-8366750.88676326,4861633.25002172,143,417164S,Bus,UTA,4,Southbound,17164,BROAD ST & POPLAR ST,39.970341,-75.159802,Fall 2016,33,17
-8366781.72226221,4861447.47163551,144,45277S,Bus,UTA,4,Southbound,5277,BROAD ST & PARRISH ST,39.969062,-75.160079,Fall 2016,16,7
-8366811.33324677,4861272.44513982,145,45144S,Bus,UTA,4,Southbound,5144,BROAD ST & BROWN ST,39.967857,-75.160345,Fall 2016,18,17
-8366843.6158991,4861075.9252908,146,417165S,Bus,UTA,4,Southbound,17165,BROAD ST & RIDGE AV - FS,39.966504,-75.160635,Fall 2016,50,33
-8366874.67403703,4860888.99538526,147,417166S,Bus,UTA,4,Southbound,17166,BROAD ST & WALLACE ST,39.965217,-75.160914,Fall 2016,18,15
-8366915.86224862,4860649.05632821,148,417167S,Bus,UTA,4,Southbound,17167,BROAD ST & GREEN ST,39.963565,-75.161284,Fall 2016,5,14
-8366938.57142474,4860507.88424101,149,417168S,Bus,UTA,4,Southbound,17168,BROAD ST & SPRING GARDEN ST,39.962593,-75.161488,Fall 2016,56,68
-8367004.91784125,4860105.43861706,150,417169S,Bus,UTA,4,Southbound,17169,BROAD ST & CALLOWHILL ST,39.959822,-75.162084,Fall 2016,5,16
-8367041.76459271,4859884.10773685,151,431123S,Bus,UTA,4,Southbound,31123,BROAD ST & VINE ST,39.958298,-75.162415,Fall 2016,22,44
-8367090.29989069,4859611.37213716,152,417170S,Bus,UTA,4,Southbound,17170,BROAD ST & RACE ST,39.95642,-75.162851,Fall 2016,54,71
-8367136.83143785,4859355.05397306,153,45131S,Bus,UTA,4,Southbound,5131,BROAD ST & ARCH ST,39.954655,-75.163269,Fall 2016,48,167
-8367352.23465253,4859098.59720654,154,4515S,Bus,UTA,4,Southbound,515,15TH ST & MARKET ST,39.952889,-75.165204,Fall 2016,289,324
-8367227.89078131,4858759.0853539,155,415185S,Bus,UTA,4,Southbound,15185,BROAD ST & CHESTNUT ST - FS,39.950551,-75.164087,Fall 2016,195,109
-8367246.70377526,4858597.90115454,156,415186S,Bus,UTA,4,Southbound,15186,BROAD ST & WALNUT ST,39.949441,-75.164256,Fall 2016,118,86
-8367275.31288439,4858425.10298098,157,415187S,Bus,UTA,4,Southbound,15187,BROAD ST & LOCUST ST,39.948251,-75.164513,Fall 2016,46,21
-8367306.48234181,4858248.96810441,158,415188S,Bus,UTA,4,Southbound,15188,BROAD ST & SPRUCE ST,39.947038,-75.164793,Fall 2016,26,28
-8367341.43666192,4858057.59013821,159,415189S,Bus,UTA,4,Southbound,15189,BROAD ST & PINE ST,39.94572,-75.165107,Fall 2016,15,20
-8367368.2646592,4857904.69369936,160,415190S,Bus,UTA,4,Southbound,15190,BROAD ST & LOMBARD ST,39.944667,-75.165348,Fall 2016,28,64
-8367393.64550311,4857752.23520607,161,415191S,Bus,UTA,4,Southbound,15191,BROAD ST & SOUTH ST,39.943617,-75.165576,Fall 2016,45,26
-8367424.14704358,4857572.04680366,162,415192S,Bus,UTA,4,Southbound,15192,BROAD ST & BAINBRIDGE ST - F,39.942376,-75.16585,Fall 2016,7,9
-8367445.18642734,4857449.06755455,163,415193S,Bus,UTA,4,Southbound,15193,BROAD ST & FITZWATER ST,39.941529,-75.166039,Fall 2016,11,28
-8367467.00504754,4857318.53988704,164,415194S,Bus,UTA,4,Southbound,15194,BROAD ST & CATHERINE ST,39.94063,-75.166235,Fall 2016,22,51
-8367487.04255588,4857200.64540327,165,415195S,Bus,UTA,4,Southbound,15195,BROAD ST & CHRISTIAN ST,39.939818,-75.166415,Fall 2016,37,92
-8367511.31020487,4857055.60226192,166,415196S,Bus,UTA,4,Southbound,15196,BROAD ST & CARPENTER ST,39.938819,-75.166633,Fall 2016,17,15
-8367535.24389539,4856911.43234893,167,4148S,Bus,UTA,4,Southbound,148,BROAD ST & WASHINGTON AV,39.937826,-75.166848,Fall 2016,36,47
-8367562.9624486,4856749.55221081,168,417177S,Bus,UTA,4,Southbound,17177,BROAD ST & ELLSWORTH ST,39.936711,-75.167097,Fall 2016,27,36
-8367590.68100181,4856587.81989055,169,417180S,Bus,UTA,4,Southbound,17180,BROAD ST & FEDERAL ST,39.935597,-75.167346,Fall 2016,29,36
-8367624.6334465,4856387.90844345,170,417182S,Bus,UTA,4,Southbound,17182,BROAD ST & WHARTON ST,39.93422,-75.167651,Fall 2016,16,27
-8367653.79915309,4856206.58338363,171,417184S,Bus,UTA,4,Southbound,17184,BROAD ST & REED ST,39.932971,-75.167913,Fall 2016,12,41
-8367683.96673509,4856027.4392161,172,417187S,Bus,UTA,4,Southbound,17187,BROAD ST & DICKINSON ST,39.931737,-75.168184,Fall 2016,11,30
-8367712.79848321,4855856.57295055,173,417189S,Bus,UTA,4,Southbound,17189,BROAD ST & TASKER ST,39.93056,-75.168443,Fall 2016,29,83
-8367742.07550929,4855680.62877038,174,417190S,Bus,UTA,4,Southbound,17190,BROAD ST & MORRIS ST,39.929348,-75.168706,Fall 2016,45,69
-8367773.69024467,4855495.1068457,175,417192S,Bus,UTA,4,Southbound,17192,BROAD ST & MOORE ST,39.92807,-75.16899,Fall 2016,10,23
-8367803.96914617,4855314.95937101,176,417194S,Bus,UTA,4,Southbound,17194,BROAD ST & MIFFLIN ST,39.926829,-75.169262,Fall 2016,4,24
-8367832.24429683,4855150.49236868,177,417195S,Bus,UTA,4,Southbound,17195,BROAD ST & MCKEAN ST,39.925696,-75.169516,Fall 2016,6,69
-8367860.408128,4854985.88293108,178,45308S,Bus,UTA,4,Southbound,5308,BROAD ST & SNYDER AV,39.924562,-75.169769,Fall 2016,45,246
-8367892.13418288,4854791.66471994,179,45221S,Bus,UTA,4,Southbound,5221,BROAD ST & JACKSON ST,39.923224,-75.170054,Fall 2016,7,24
-8367921.52252845,4854614.86848246,180,417198S,Bus,UTA,4,Southbound,17198,BROAD ST & WOLF ST,39.922006,-75.170318,Fall 2016,8,67
-8367952.24670791,4854433.14032405,181,45296S,Bus,UTA,4,Southbound,5296,BROAD ST & RITNER ST,39.920754,-75.170594,Fall 2016,6,47
-8367982.5256094,4854253.44753683,182,45287S,Bus,UTA,4,Southbound,5287,BROAD ST & PORTER ST,39.919516,-75.170866,Fall 2016,4,39
-8368014.69694224,4854063.30765652,183,45305S,Bus,UTA,4,Southbound,5305,BROAD ST & SHUNK ST,39.918206,-75.171155,Fall 2016,1,28
-8368057.33230721,4853821.64656937,184,420960S,Bus,UTA,4,Southbound,20960,BROAD ST & OREGON AV - FS,39.916541,-75.171538,Fall 2016,10,149
-8368120.56177798,4853484.78226855,185,45140S,Bus,UTA,4,Southbound,5140,BROAD ST & BIGLER ST,39.91422,-75.172106,Fall 2016,1,10
-8368164.42165736,4853299.59159185,186,417203S,Bus,UTA,4,Southbound,17203,BROAD ST & POLLACK ST,39.912944,-75.1725,Fall 2016,11,30
-8368217.52105447,4852958.24603054,187,417209S,Bus,UTA,4,Southbound,17209,BROAD ST & CURTAIN ST,39.910592,-75.172977,Fall 2016,1,18
-8368246.79808054,4852769.8724191,188,4150S,Bus,UTA,4,Southbound,150,BROAD ST & GEARY ST,39.909294,-75.17324,Fall 2016,1,22
-8368273.73739732,4852582.80847438,189,431309S,Bus,UTA,4,Southbound,31309,BROAD ST & HARTRANFT ST,39.908005,-75.173482,Fall 2016,1,7
-8368281.52976167,4852240.32658747,190,431487S,Bus,UTA,4,Southbound,31487,BROAD ST & PATTISON AV -,39.905645,-75.173552,Fall 2016,0,99
-8368256.03759828,4852363.09628018,191,431487N,Bus,UTA,4,Northbound,31487,BROAD ST & PATTISON AV - 3 F,39.906491,-75.173323,Fall 2016,101,0
-8368219.07952734,4852592.53164933,192,425239N,Bus,UTA,4,Northbound,25239,BROAD ST & HARTRANFT ST,39.908072,-75.172991,Fall 2016,7,1
-8368203.60611812,4852779.30552738,193,4158N,Bus,UTA,4,Northbound,158,BROAD ST & GEARY ST,39.909359,-75.172852,Fall 2016,17,1
-8368176.44416236,4852970.43674162,194,417229N,Bus,UTA,4,Northbound,17229,BROAD ST & CURTIN ST,39.910676,-75.172608,Fall 2016,17,2
-8368125.01455762,4853308.73493771,195,417231N,Bus,UTA,4,Northbound,17231,BROAD ST & POLLACK ST,39.913007,-75.172146,Fall 2016,6,3
-8368081.48863672,4853517.72799337,196,417232N,Bus,UTA,4,Northbound,17232,BROAD ST & BIGLER ST - FS,39.914447,-75.171755,Fall 2016,6,1
-8368029.7250735,4853824.54937039,197,431307N,Bus,UTA,4,Northbound,31307,BROAD ST & OREGON AV - 2,39.916561,-75.17129,Fall 2016,143,18
-8367998.11033811,4854029.1989788,198,417233N,Bus,UTA,4,Northbound,17233,BROAD ST & SHUNK ST,39.917971,-75.171006,Fall 2016,30,1
-8367966.8295612,4854219.04791493,199,417234N,Bus,UTA,4,Northbound,17234,BROAD ST & PORTER ST,39.919279,-75.170725,Fall 2016,36,5
-8367936.77329869,4854398.88522869,200,417235N,Bus,UTA,4,Northbound,17235,BROAD ST & RITNER ST,39.920518,-75.170455,Fall 2016,36,5
-8367906.27175821,4854581.04821411,201,417236N,Bus,UTA,4,Northbound,17236,BROAD ST & WOLF ST,39.921773,-75.170181,Fall 2016,62,10
-8367876.32681518,4854761.90815443,202,417237N,Bus,UTA,4,Northbound,17237,BROAD ST & JACKSON ST,39.923019,-75.169912,Fall 2016,43,10
-8367846.60451114,4854938.85216398,203,417238N,Bus,UTA,4,Northbound,17238,BROAD ST & SNYDER AV,39.924238,-75.169645,Fall 2016,193,39
-8367816.99352659,4855116.96059544,204,417239N,Bus,UTA,4,Northbound,17239,BROAD ST & MCKEAN ST,39.925465,-75.169379,Fall 2016,87,13
-8367787.38254204,4855297.53996564,205,417240N,Bus,UTA,4,Northbound,17240,BROAD ST & MIFFLIN ST,39.926709,-75.169113,Fall 2016,24,5
-8367757.88287698,4855476.38064668,206,417241N,Bus,UTA,4,Northbound,17241,BROAD ST & MOORE ST,39.927941,-75.168848,Fall 2016,27,8
-8367726.82473905,4855656.96654816,207,417243N,Bus,UTA,4,Northbound,17243,BROAD ST & MORRIS ST,39.929185,-75.168569,Fall 2016,107,34
-8367699.21750533,4855828.84556686,208,417244N,Bus,UTA,4,Northbound,17244,BROAD ST & TASKER ST,39.930369,-75.168321,Fall 2016,70,49
-8367667.38013097,4856015.38992691,209,417245N,Bus,UTA,4,Northbound,17245,BROAD ST & DICKINSON ST,39.931654,-75.168035,Fall 2016,24,11
-8367637.76914642,4856191.34003458,210,417246N,Bus,UTA,4,Northbound,17246,BROAD ST & REED ST,39.932866,-75.167769,Fall 2016,29,18
-8367606.26573052,4856377.45566798,211,417247N,Bus,UTA,4,Northbound,17247,BROAD ST & WHARTON ST,39.934148,-75.167486,Fall 2016,22,12
-8367571.97932736,4856580.85123215,212,417248N,Bus,UTA,4,Northbound,17248,BROAD ST & FEDERAL ST,39.935549,-75.167178,Fall 2016,39,30
-8367545.15133008,4856750.42330763,213,417249N,Bus,UTA,4,Northbound,17249,BROAD ST & ELLSWORTH ST,39.936717,-75.166937,Fall 2016,32,20
-8367520.6610421,4856898.0753229,214,418273N,Bus,UTA,4,Northbound,18273,BROAD ST & WASHINGTON AV,39.937734,-75.166717,Fall 2016,56,44
-8367489.49158468,4857086.23682309,215,45150N,Bus,UTA,4,Northbound,5150,BROAD ST & CARPENTER ST,39.93903,-75.166437,Fall 2016,6,8
-8367465.78053314,4857226.34395845,216,45166N,Bus,UTA,4,Northbound,5166,BROAD ST & CHRISTIAN ST,39.939995,-75.166224,Fall 2016,81,38
-8367441.40156465,4857371.82516819,217,45152N,Bus,UTA,4,Northbound,5152,BROAD ST & CATHERINE ST,39.940997,-75.166005,Fall 2016,43,20
-8367416.79995719,4857519.48641882,218,45195N,Bus,UTA,4,Northbound,5195,BROAD ST & FITZWATER ST,39.942014,-75.165784,Fall 2016,21,10
-8367390.63987685,4857678.91076398,219,45135N,Bus,UTA,4,Northbound,5135,BROAD ST & BAINBRIDGE ST,39.943112,-75.165549,Fall 2016,8,9
-8367371.49292444,4857791.72899121,220,414996N,Bus,UTA,4,Northbound,14996,BROAD ST & SOUTH ST,39.943889,-75.165377,Fall 2016,31,28
-8367351.4554161,4857913.11528432,221,45233N,Bus,UTA,4,Northbound,5233,BROAD ST & LOMBARD ST,39.944725,-75.165197,Fall 2016,58,41
-8367326.63116965,4858066.30225688,222,45281N,Bus,UTA,4,Northbound,5281,BROAD ST & PINE ST,39.94578,-75.164974,Fall 2016,21,10
-8367298.24469949,4858237.93255247,223,45318N,Bus,UTA,4,Northbound,5318,BROAD ST & SPRUCE ST,39.946962,-75.164719,Fall 2016,25,19
-8367268.74503444,4858410.72747005,224,45229N,Bus,UTA,4,Northbound,5229,BROAD ST & LOCUST ST,39.948152,-75.164454,Fall 2016,24,40
-8367248.48488711,4858558.6945826,225,415941N,Bus,UTA,4,Northbound,15941,BROAD ST & WALNUT ST,39.949171,-75.164272,Fall 2016,98,183
-8367204.84764672,4858842.00184826,226,420414N,Bus,UTA,4,Northbound,20414,BROAD ST & S PENN SQUARE,39.951122,-75.16388,Fall 2016,211,237
-8367129.81830992,4859281.42725881,227,417261N,Bus,UTA,4,Northbound,17261,BROAD ST & ARCH ST,39.954148,-75.163206,Fall 2016,260,99
-8367079.05662212,4859547.61872929,228,417262N,Bus,UTA,4,Northbound,17262,BROAD ST & RACE ST,39.955981,-75.16275,Fall 2016,95,46
-8367018.72145811,4859905.60159557,229,417263N,Bus,UTA,4,Northbound,17263,BROAD ST & VINE ST - FS,39.958446,-75.162208,Fall 2016,64,24
-8366988.44255662,4860094.25577054,230,417264N,Bus,UTA,4,Northbound,17264,BROAD ST & CALLOWHILL ST - F,39.959745,-75.161936,Fall 2016,18,14
-8366930.44510191,4860423.79194534,231,417265N,Bus,UTA,4,Northbound,17265,BROAD ST & SPRING GARDEN ST,39.962014,-75.161415,Fall 2016,98,46
-8366890.92668268,4860643.53721715,232,417266N,Bus,UTA,4,Northbound,17266,BROAD ST & GREEN ST,39.963527,-75.16106,Fall 2016,15,8
-8366847.51208127,4860895.82182339,233,417267N,Bus,UTA,4,Northbound,17267,BROAD ST & WALLACE ST - FS,39.965264,-75.16067,Fall 2016,15,15
-8366820.46144501,4861054.57414455,234,417268N,Bus,UTA,4,Northbound,17268,BROAD ST & RIDGE AV,39.966357,-75.160427,Fall 2016,47,32
-8366783.28073509,4861275.9311146,235,417269N,Bus,UTA,4,Northbound,17269,BROAD ST & BROWN ST,39.967881,-75.160093,Fall 2016,31,20
-8366753.78107002,4861448.92415046,236,417270N,Bus,UTA,4,Northbound,17270,BROAD ST & PARRISH ST,39.969072,-75.159828,Fall 2016,9,12
-8366726.2851558,4861620.17715215,237,417271N,Bus,UTA,4,Northbound,17271,BROAD ST & POPLAR ST,39.970251,-75.159581,Fall 2016,11,19
-8366700.9043119,4861768.62786085,238,4164N,Bus,UTA,4,Northbound,164,BROAD ST & GIRARD AV,39.971273,-75.159353,Fall 2016,138,82
-8366662.05380961,4862001.04047306,239,417273N,Bus,UTA,4,Northbound,17273,BROAD ST & THOMPSON ST,39.972873,-75.159004,Fall 2016,24,8
-8366628.3240039,4862203.24387144,240,417274N,Bus,UTA,4,Northbound,17274,BROAD ST & MASTER ST,39.974265,-75.158701,Fall 2016,12,17
-8366593.81496175,4862408.35669863,241,417275N,Bus,UTA,4,Northbound,17275,BROAD ST & JEFFERSON ST,39.975677,-75.158391,Fall 2016,20,28
-8366560.41911452,4862614.63591212,242,417276N,Bus,UTA,4,Northbound,17276,BROAD ST & OXFORD ST,39.977097,-75.158091,Fall 2016,68,47
-8366529.58361557,4862811.6220352,243,417277N,Bus,UTA,4,Northbound,17277,BROAD ST & CECIL MOORE AV,39.978453,-75.157814,Fall 2016,103,86
-8366488.61804296,4863063.81646475,244,417278N,Bus,UTA,4,Northbound,17278,BROAD ST & MONTGOMERY AV - F,39.980189,-75.157446,Fall 2016,14,11
-8366456.44671012,4863259.35872146,245,417279N,Bus,UTA,4,Northbound,17279,BROAD ST & POLETT WALK,39.981535,-75.157157,Fall 2016,6,7
-8366420.71315357,4863473.93664091,246,417280N,Bus,UTA,4,Northbound,17280,BROAD ST & NORRIS ST,39.983012,-75.156836,Fall 2016,11,12
-8366376.96459369,4863736.17255645,247,417281N,Bus,UTA,4,Northbound,17281,BROAD ST & DIAMOND ST - FS,39.984817,-75.156443,Fall 2016,9,17
-8366344.90458034,4863928.82230271,248,417282N,Bus,UTA,4,Northbound,17282,BROAD ST & SUSQUEHANNA AV,39.986143,-75.156155,Fall 2016,58,76
-8366308.16914838,4864150.8245359,249,417283N,Bus,UTA,4,Northbound,17283,BROAD ST & DAUPHIN ST,39.987671,-75.155825,Fall 2016,36,26
-8366271.6563554,4864365.4217286,250,417284N,Bus,UTA,4,Northbound,17284,BROAD ST & YORK ST,39.989148,-75.155497,Fall 2016,9,16
-8366234.92092344,4864582.05772427,251,417286N,Bus,UTA,4,Northbound,17286,BROAD ST & CUMBERLAND ST,39.990639,-75.155167,Fall 2016,17,24
-8366195.73646268,4864818.16873884,252,417287N,Bus,UTA,4,Northbound,17287,BROAD ST & HUNTINGDON ST,39.992264,-75.154815,Fall 2016,15,21
-8366159.66894766,4865031.47262658,253,417288N,Bus,UTA,4,Northbound,17288,BROAD ST & LEHIGH AV,39.993732,-75.154491,Fall 2016,104,112
-8366123.60143264,4865254.37136979,254,417290N,Bus,UTA,4,Northbound,17290,BROAD ST & SOMERSET ST,39.995266,-75.154167,Fall 2016,7,10
-8366090.42822439,4865449.08492956,255,417291N,Bus,UTA,4,Northbound,17291,BROAD ST & GLENWOOD AV,39.996606,-75.153869,Fall 2016,22,20
-8366045.12119164,4865708.03082133,256,417296N,Bus,UTA,4,Northbound,17296,BROAD ST & INDIANA AV,39.998388,-75.153462,Fall 2016,23,39
-8366003.71034106,4865962.76926007,257,417297N,Bus,UTA,4,Northbound,17297,BROAD ST & CLEARFIELD ST - F,40.000141,-75.15309,Fall 2016,8,13
-8343722.66898082,4882976.75465954,258,130140S,Bus,UTA,1,Southbound,30140,PARX CASINO,40.117122,-74.952936,Fall 2016,52,0
-8365973.20880058,4866143.11000922,259,4165N,Bus,UTA,4,Northbound,165,BROAD ST & ALLEGHENY AV,40.001382,-75.152816,Fall 2016,124,135
-8365866.23076993,4866389.14018511,260,430065N,Bus,UTA,4,Northbound,30065,RISING SUN AV & WESTMORELAND,40.003075,-75.151855,Fall 2016,36,71
-8365691.57048887,4866464.70885896,261,428691N,Bus,UTA,4,Northbound,28691,RISING SUN AV & 13TH ST,40.003595,-75.150286,Fall 2016,9,7
-8365569.34168798,4866518.33390165,262,417363N,Bus,UTA,4,Northbound,17363,RISING SUN AV & GERMANTOWN A,40.003964,-75.149188,Fall 2016,45,50
-8365423.51315505,4866610.32550359,263,417365N,Bus,UTA,4,Northbound,17365,RISING SUN AV & OLD YORK RD,40.004597,-75.147878,Fall 2016,11,9
-8365283.47323563,4866699.7020475,264,417366N,Bus,UTA,4,Northbound,17366,RISING SUN AV & 11TH ST,40.005212,-75.14662,Fall 2016,21,30
-8364961.42594876,4866930.34084865,265,417367N,Bus,UTA,4,Northbound,17367,RISING SUN AV & 9TH ST,40.006799,-75.143727,Fall 2016,5,41
-8364872.59299511,4867106.48448928,266,4167N,Bus,UTA,4,Northbound,167,9TH ST & ERIE AV,40.008011,-75.142929,Fall 2016,55,62
-8364827.84255981,4867331.46457843,267,417368N,Bus,UTA,4,Northbound,17368,9TH ST & BUTLER ST,40.009559,-75.142527,Fall 2016,16,40
-8364788.76941854,4867552.52556575,268,417369N,Bus,UTA,4,Northbound,17369,9TH ST & PIKE ST,40.01108,-75.142176,Fall 2016,14,56
-8364748.91704084,4867775.19026445,269,417370N,Bus,UTA,4,Northbound,17370,9TH ST & LUZERNE ST,40.012612,-75.141818,Fall 2016,33,84
-8364713.0721648,4867988.55773283,270,417372N,Bus,UTA,4,Northbound,17372,9TH ST & LYCOMING ST,40.01408,-75.141496,Fall 2016,12,53
-8364676.22541335,4868210.21476565,271,417374N,Bus,UTA,4,Northbound,17374,9TH ST & HUNTING PARK AV,40.015605,-75.141165,Fall 2016,22,66
-8364636.37303565,4868448.44709258,272,417375N,Bus,UTA,4,Northbound,17375,9TH ST & BRISTOL ST,40.017244,-75.140807,Fall 2016,16,57
-8364597.85649183,4868672.87619041,273,417377N,Bus,UTA,4,Northbound,17377,9TH ST & CAYUGA ST,40.018788,-75.140461,Fall 2016,11,48
-8364545.42501167,4868961.70530665,274,417379N,Bus,UTA,4,Northbound,17379,9TH ST & ROOSEVELT BLVD,40.020775,-75.13999,Fall 2016,25,64
-8364506.12923142,4869166.52178993,275,417381N,Bus,UTA,4,Northbound,17381,9TH ST & ROOSEVELT BLVD - FS,40.022184,-75.139637,Fall 2016,11,12
-8364473.7352596,4869344.3041821,276,417382N,Bus,UTA,4,Northbound,17382,9TH ST & WYOMING AV,40.023407,-75.139346,Fall 2016,21,15
-8364440.89600981,4869555.6702243,277,428692N,Bus,UTA,4,Northbound,28692,9TH ST & LOUDON ST,40.024861,-75.139051,Fall 2016,5,30
-8364404.49453632,4869778.23452288,278,417384N,Bus,UTA,4,Northbound,17384,9TH ST & ROCKLAND ST,40.026392,-75.138724,Fall 2016,22,115
-8364369.54021621,4869991.79046255,279,417386N,Bus,UTA,4,Northbound,17386,9TH ST & RUSCOMB ST,40.027861,-75.13841,Fall 2016,9,63
-8364336.25568847,4870209.56701452,280,417387N,Bus,UTA,4,Northbound,17387,9TH ST & LINDLEY AV,40.029359,-75.138111,Fall 2016,38,83
-8364307.42394035,4870436.2167158,281,417389N,Bus,UTA,4,Northbound,17389,9TH ST & DUNCANNON AV,40.030918,-75.137852,Fall 2016,15,58
-8364316.10686063,4870655.02073253,282,417390N,Bus,UTA,4,Northbound,17390,9TH ST & FISHER AV,40.032423,-75.13793,Fall 2016,12,34
-8364417.40759726,4870775.83751105,283,417393N,Bus,UTA,4,Northbound,17393,FISHER AV & 10TH ST,40.033254,-75.13884,Fall 2016,9,27
-8364495.99915775,4870933.14868762,284,428693N,Bus,UTA,4,Northbound,28693,10TH ST & WAGNER AV,40.034336,-75.139546,Fall 2016,2,24
-8364517.70645846,4871086.82754271,285,417394N,Bus,UTA,4,Northbound,17394,11TH ST & SOMERVILLE AV - FS,40.035393,-75.139741,Fall 2016,1,23
-8364507.35374582,4871240.65417464,286,417396N,Bus,UTA,4,Northbound,17396,11TH ST & CLARKSON AV,40.036451,-75.139648,Fall 2016,3,15
-8364491.43505863,4871375.58157833,287,430304N,Bus,UTA,4,Northbound,30304,11TH ST & TABOR RD,40.037379,-75.139505,Fall 2016,2,46
-8364490.76714169,4871467.03664924,288,428694N,Bus,UTA,4,Northbound,28694,11TH ST & OLNEY AV,40.038008,-75.139499,Fall 2016,6,137
-8364488.31811289,4871651.69413312,289,417398N,Bus,UTA,4,Northbound,17398,11TH ST & CHEW ST - FS,40.039278,-75.139477,Fall 2016,0,7
-8364524.83090587,4871879.10382327,290,417400N,Bus,UTA,4,Northbound,17400,GRANGE AV 11TH ST - FS,40.040842,-75.139805,Fall 2016,9,25
-8364513.14235934,4872073.22044116,291,428695N,Bus,UTA,4,Northbound,28695,12TH ST & NEDRO AV,40.042177,-75.1397,Fall 2016,2,40
-8364412.28690068,4872058.82514576,292,421193N,Bus,UTA,4,Northbound,21193,NEDRO AV & 11TH ST,40.042078,-75.138794,Fall 2016,15,145
-8364466.83345117,4871909.63876968,293,421534N,Bus,UTA,4,Northbound,21534,11TH ST & NEDRO AV - FS,40.041052,-75.139284,Fall 2016,0,65
-8357719.6477947,4869249.81600535,294,521972S,Bus,UTA,5,Southbound,21972,FRANKFORD TRANSPORTATION CEN,40.022757,-75.078673,Fall 2016,556,1
-8357791.78282473,4869082.5014576,295,524089S,Bus,UTA,5,Southbound,24089,FRANKFORD AV & DYRE ST,40.021606,-75.079321,Fall 2016,39,18
-8357915.79273747,4868909.8113831,296,524088S,Bus,UTA,5,Southbound,24088,FRANKFORD AV & WAKELING ST,40.020418,-75.080435,Fall 2016,15,10
-8358047.37237559,4868733.92643496,297,524090S,Bus,UTA,5,Southbound,24090,FRANKFORD AV & HARRISON ST,40.019208,-75.081617,Fall 2016,43,21
-8358180.62180607,4868543.50905684,298,524091S,Bus,UTA,5,Southbound,24091,FRANKFORD AV & FOULKROD ST,40.017898,-75.082814,Fall 2016,22,21
-8358275.91129019,4868407.60270579,299,525421S,Bus,UTA,5,Southbound,25421,FRANKFORD AV & OXFORD AV,40.016963,-75.08367,Fall 2016,106,76
-8358479.51463885,4868102.36528248,300,519011S,Bus,UTA,5,Southbound,19011,FRANKFORD AV & ORTHODOX ST,40.014863,-75.085499,Fall 2016,24,31
-8358556.77036546,4867929.69227122,301,524093S,Bus,UTA,5,Southbound,24093,FRANKFORD AV & SELLERS ST,40.013675,-75.086193,Fall 2016,19,21
-8358694.02729761,4867768.79512507,302,524094S,Bus,UTA,5,Southbound,24094,FRANKFORD AV & UNITY ST,40.012568,-75.087426,Fall 2016,21,31
-8358837.07284328,4867527.67230956,303,524095S,Bus,UTA,5,Southbound,24095,FRANKFORD AV & CHURCH ST,40.010909,-75.088711,Fall 2016,22,12
-8358892.06467173,4867381.60618503,304,524129S,Bus,UTA,5,Southbound,24129,FRANKFORD AV & RUAN ST - MBN,40.009904,-75.089205,Fall 2016,8,8
-8359001.93700915,4867187.43603968,305,524130S,Bus,UTA,5,Southbound,24130,FRANKFORD AV & WOMRATH ST,40.008568,-75.090192,Fall 2016,7,18
-8359078.30217983,4867037.74159077,306,524131S,Bus,UTA,5,Southbound,24131,FRANKFORD AV & ADAMS AV,40.007538,-75.090878,Fall 2016,13,25
-8359204.87244086,4866819.01735526,307,564S,Bus,UTA,5,Southbound,64,FRANKFORD AV & TORRESDALE AV,40.006033,-75.092015,Fall 2016,55,29
-8359322.8711011,4866665.69526761,308,524133S,Bus,UTA,5,Southbound,24133,FRANKFORD AV & JASPER ST,40.004978,-75.093075,Fall 2016,16,5
-8359483.39380683,4866473.42835837,309,524134S,Bus,UTA,5,Southbound,24134,FRANKFORD AV & PIKE ST,40.003655,-75.094517,Fall 2016,23,8
-8359588.14544766,4866349.17621526,310,524135S,Bus,UTA,5,Southbound,24135,FRANKFORD AV & BUCKIUS ST -,40.0028,-75.095458,Fall 2016,11,8
-8359700.80077234,4866217.22359616,311,524136S,Bus,UTA,5,Southbound,24136,FRANKFORD AV & VALETTA ST,40.001892,-75.09647,Fall 2016,2,1
-8359839.95013584,4866054.31975454,312,524137S,Bus,UTA,5,Southbound,24137,FRANKFORD AV & GLENWOOD AV,40.000771,-75.09772,Fall 2016,9,21
-8359995.57478397,4865891.99985351,313,524138S,Bus,UTA,5,Southbound,24138,FRANKFORD AV & CASTOR AV,39.999654,-75.099118,Fall 2016,37,38
-8360244.03988742,4865675.91651372,314,524139S,Bus,UTA,5,Southbound,24139,FRANKFORD AV & VENANGO ST,39.998167,-75.10135,Fall 2016,88,58
-8360471.5769266,4865481.63443466,315,524140S,Bus,UTA,5,Southbound,24140,FRANKFORD AV & TIOGA ST,39.99683,-75.103394,Fall 2016,63,50
-8360713.25154111,4865283.72346782,316,524141S,Bus,UTA,5,Southbound,24141,FRANKFORD AV & ONTARIO ST,39.995468,-75.105565,Fall 2016,51,38
-8360976.07685887,4865097.87674813,317,524142S,Bus,UTA,5,Southbound,24142,FRANKFORD AV & WESTMORELAND,39.994189,-75.107926,Fall 2016,18,14
-8361224.54196232,4864930.63220636,318,524143S,Bus,UTA,5,Southbound,24143,FRANKFORD AV & ALLEGHENY AV,39.993038,-75.110158,Fall 2016,89,122
-8361509.96513672,4864752.92888765,319,524144S,Bus,UTA,5,Southbound,24144,FRANKFORD AV & CLEARFIELD ST,39.991815,-75.112722,Fall 2016,72,56
-8361666.70297975,4864664.58696647,320,524145S,Bus,UTA,5,Southbound,24145,FRANKFORD AV & ELKHART ST,39.991207,-75.11413,Fall 2016,45,51
-8361862.40264457,4864559.68195643,321,524146S,Bus,UTA,5,Southbound,24146,FRANKFORD AV & ORLEANS ST,39.990485,-75.115888,Fall 2016,37,51
-8362056.09855855,4864463.64108435,322,524147S,Bus,UTA,5,Southbound,24147,FRANKFORD AV & CAMBRIA ST,39.989824,-75.117628,Fall 2016,35,41
-8362331.28033979,4864307.30422436,323,524148S,Bus,UTA,5,Southbound,24148,FRANKFORD AV & SOMERSET ST,39.988748,-75.1201,Fall 2016,22,55
-8362574.62474666,4864062.77855345,324,565S,Bus,UTA,5,Southbound,65,FRANKFORD AV & LEHIGH AV,39.987065,-75.122286,Fall 2016,4,17
-8362772.5508013,4863801.2604386,325,524149S,Bus,UTA,5,Southbound,24149,FRANKFORD AV & HUNTINGDON ST,39.985265,-75.124064,Fall 2016,28,34
-8362879.08355398,4863651.4717775,326,524150S,Bus,UTA,5,Southbound,24150,FRANKFORD AV & SERGEANT ST,39.984234,-75.125021,Fall 2016,14,51
-8362977.60130334,4863513.88903387,327,524151S,Bus,UTA,5,Southbound,24151,FRANKFORD AV & CUMBERLAND ST,39.983287,-75.125906,Fall 2016,32,35
-8363083.02086112,4863368.02725734,328,524152S,Bus,UTA,5,Southbound,24152,FRANKFORD AV & HAGERT ST,39.982283,-75.126853,Fall 2016,15,10
-8363175.19339949,4863247.8817664,329,524153S,Bus,UTA,5,Southbound,24153,FRANKFORD AV & YORK ST,39.981456,-75.127681,Fall 2016,6,17
-8363275.60358019,4863112.62902988,330,524154S,Bus,UTA,5,Southbound,24154,FRANKFORD AV & DAUPHIN ST,39.980525,-75.128583,Fall 2016,20,30
-8363378.68542866,4862968.95225535,331,524155S,Bus,UTA,5,Southbound,24155,FRANKFORD AV & SUSQUEHANNA A,39.979536,-75.129509,Fall 2016,5,10
-8363483.32575001,4862823.24375749,332,524156S,Bus,UTA,5,Southbound,24156,FRANKFORD AV & NORRIS ST,39.978533,-75.130449,Fall 2016,13,6
-8363579.17183158,4862669.11177196,333,524157S,Bus,UTA,5,Southbound,24157,FRANKFORD AV & BERKS ST,39.977472,-75.13131,Fall 2016,9,8
-8363650.19366671,4862525.15088186,334,524158S,Bus,UTA,5,Southbound,24158,FRANKFORD AV & MONTGOMERY AV,39.976481,-75.131948,Fall 2016,4,33
-8363723.99848911,4862365.93925082,335,524159S,Bus,UTA,5,Southbound,24159,FRANKFORD AV & PALMER ST,39.975385,-75.132611,Fall 2016,14,27
-8363802.92400808,4862184.0692345,336,524092S,Bus,UTA,5,Southbound,24092,FRANKFORD AV & OXFORD ST,39.974133,-75.13332,Fall 2016,9,9
-8363877.17410844,4861985.20719116,337,524035S,Bus,UTA,5,Southbound,24035,FRANKFORD AV & JEFFERSON ST,39.972764,-75.133987,Fall 2016,2,6
-8363922.3698217,4861788.09220838,338,524036S,Bus,UTA,5,Southbound,24036,FRANKFORD AV & MASTER ST - F,39.971407,-75.134393,Fall 2016,3,14
-8363942.852608,4861611.75242311,339,524037S,Bus,UTA,5,Southbound,24037,FRANKFORD AV & THOMPSON ST,39.970193,-75.134577,Fall 2016,4,4
-8363979.142762,4861447.32638403,340,5493S,Bus,UTA,5,Southbound,493,FRANKFORD AV & GIRARD AV,39.969061,-75.134903,Fall 2016,7,37
-8364123.0788636,4861418.42138119,341,5342S,Bus,UTA,5,Southbound,342,GIRARD AV & FRONT ST,39.968862,-75.136196,Fall 2016,17,134
-8364467.72400709,4861470.13089289,342,520993S,Bus,UTA,5,Southbound,20993,GIRARD AV & 2ND ST,39.969218,-75.139292,Fall 2016,5,52
-8364524.4969474,4861307.01444384,343,524162S,Bus,UTA,5,Southbound,24162,2ND ST & GERMANTOWN AV,39.968095,-75.139802,Fall 2016,4,11
-8364564.23800561,4861059.22200921,344,524163S,Bus,UTA,5,Southbound,24163,2ND ST & WILDLEY ST,39.966389,-75.140159,Fall 2016,6,6
-8364616.55816629,4860746.51271576,345,524164S,Bus,UTA,5,Southbound,24164,2ND ST & POPLAR ST,39.964236,-75.140629,Fall 2016,4,4
-8364650.1766525,4860555.81281103,346,524165S,Bus,UTA,5,Southbound,24165,2ND ST & BROWN ST,39.962923,-75.140931,Fall 2016,2,4
-8364680.34423451,4860384.86863678,347,524166S,Bus,UTA,5,Southbound,24166,2ND ST & FAIRMOUNT AV,39.961746,-75.141202,Fall 2016,2,10
-8364703.61000809,4860247.62162067,348,567S,Bus,UTA,5,Southbound,67,2ND ST & GREEN ST,39.960801,-75.141411,Fall 2016,5,60
-8364737.89641125,4860040.37495927,349,524167S,Bus,UTA,5,Southbound,24167,2ND ST & NOBLE ST,39.959374,-75.141719,Fall 2016,1,4
-8364785.87511178,4859748.75558719,350,524168S,Bus,UTA,5,Southbound,24168,2ND ST & CALLOWHILL ST,39.957366,-75.14215,Fall 2016,1,10
-8364826.61804541,4859504.77783089,351,524169S,Bus,UTA,5,Southbound,24169,2ND ST & VINE ST,39.955686,-75.142516,Fall 2016,4,9
-8364866.58174261,4859250.93114648,352,524170S,Bus,UTA,5,Southbound,24170,2ND ST & RACE ST,39.953938,-75.142875,Fall 2016,1,10
-8364909.66238554,4858978.06771806,353,524171S,Bus,UTA,5,Southbound,24171,2ND ST & ARCH ST,39.952059,-75.143262,Fall 2016,5,19
-8364947.17705394,4858717.11912583,354,531442S,Bus,UTA,5,Southbound,31442,2ND ST & MARKET ST - MBNS,39.950262,-75.143599,Fall 2016,13,204
-8364810.14276078,4858659.47030574,355,569S,Bus,UTA,5,Southbound,69,FRONT ST & MARKET ST LOO,39.949865,-75.142368,Fall 2016,0,92
-8364820.7181124,4858677.18602844,356,569N,Bus,UTA,5,Northbound,69,FRONT ST & MARKET ST LOOP,39.949987,-75.142463,Fall 2016,298,0
-8364915.0057211,4858980.68159506,357,514931N,Bus,UTA,5,Northbound,14931,ARCH ST & 2ND ST,39.952077,-75.14331,Fall 2016,8,0
-8365089.55468267,4859064.61645571,358,54467N,Bus,UTA,5,Northbound,4467,ARCH ST & 3RD ST,39.952655,-75.144878,Fall 2016,25,1
-8365084.99058354,4859262.40348251,359,517575N,Bus,UTA,5,Northbound,17575,3RD ST & RACE ST,39.954017,-75.144837,Fall 2016,33,5
-8365041.01938468,4859532.6606997,360,517579N,Bus,UTA,5,Northbound,17579,3RD ST & VINE ST,39.955878,-75.144442,Fall 2016,13,3
-8365001.72360443,4859757.32396258,361,517581N,Bus,UTA,5,Northbound,17581,3RD ST & CALLOWHILL ST,39.957425,-75.144089,Fall 2016,1,0
-8364975.00692664,4859939.14953561,362,517602N,Bus,UTA,5,Northbound,17602,3RD ST & WILLOW ST,39.958677,-75.143849,Fall 2016,6,0
-8364936.15642435,4860224.23898481,363,570N,Bus,UTA,5,Northbound,70,3RD ST & SPRING GARDEN ST,39.96064,-75.1435,Fall 2016,74,16
-8364925.69239222,4860377.60684237,364,524867N,Bus,UTA,5,Northbound,24867,3RD ST & GREEN ST,39.961696,-75.143406,Fall 2016,10,0
-8364902.76057711,4860527.92706942,365,517604N,Bus,UTA,5,Northbound,17604,3RD ST & FAIRMOUNT AV,39.962731,-75.1432,Fall 2016,8,1
-8364878.38160863,4860674.18284631,366,517605N,Bus,UTA,5,Northbound,17605,3RD ST & BROWN ST,39.963738,-75.142981,Fall 2016,9,2
-8364845.76499783,4860866.33745401,367,517606N,Bus,UTA,5,Northbound,17606,3RD ST & POPLAR ST,39.965061,-75.142688,Fall 2016,6,2
-8364805.91262012,4861083.76858054,368,517607N,Bus,UTA,5,Northbound,17607,3RD ST & WILDEY ST,39.966558,-75.14233,Fall 2016,5,5
-8364768.39795173,4861267.79717535,369,517608N,Bus,UTA,5,Northbound,17608,3RD ST & GEORGE ST,39.967825,-75.141993,Fall 2016,7,4
-8364687.35736243,4861507.17017496,370,521959N,Bus,UTA,5,Northbound,21959,3RD ST & GIRARD AV,39.969473,-75.141265,Fall 2016,65,13
-8364507.91034327,4861506.87967025,371,521096N,Bus,UTA,5,Northbound,21096,GIRARD AV & 2ND ST,39.969471,-75.139653,Fall 2016,24,10
-8364140.66734314,4861429.3152166,372,520978N,Bus,UTA,5,Northbound,20978,GIRARD AV & FRONT ST,39.968937,-75.136354,Fall 2016,128,29
-8363947.19406814,4861493.6617149,373,523928N,Bus,UTA,5,Northbound,23928,FRANKFORD AV & GIRARD AV - F,39.96938,-75.134616,Fall 2016,45,6
-8363929.49426911,4861643.70832977,374,523929N,Bus,UTA,5,Northbound,23929,FRANKFORD AV & THOMPSON ST,39.970413,-75.134457,Fall 2016,14,5
-8363909.90203873,4861845.03290683,375,523930N,Bus,UTA,5,Northbound,23930,FRANKFORD AV & MASTER ST - F,39.971799,-75.134281,Fall 2016,10,4
-8363865.70820088,4862023.84625376,376,523931N,Bus,UTA,5,Northbound,23931,FRANKFORD AV & JEFFERSON ST,39.97303,-75.133884,Fall 2016,6,2
-8363803.70324451,4862186.97448014,377,523932N,Bus,UTA,5,Northbound,23932,FRANKFORD AV & OXFORD ST,39.974153,-75.133327,Fall 2016,6,6
-8363731.56821448,4862348.36221084,378,523933N,Bus,UTA,5,Northbound,23933,FRANKFORD AV & PALMER ST,39.975264,-75.132679,Fall 2016,45,20
-8363635.49949392,4862556.81919321,379,523934N,Bus,UTA,5,Northbound,23934,FRANKFORD AV & MONTGOMERY AV,39.976699,-75.131816,Fall 2016,19,6
-8363558.02112833,4862705.57444782,380,523935N,Bus,UTA,5,Northbound,23935,FRANKFORD AV & BERKS ST,39.977723,-75.13112,Fall 2016,11,10
-8363469.85609162,4862836.46348314,381,523936N,Bus,UTA,5,Northbound,23936,FRANKFORD AV & NORRIS ST,39.978624,-75.130328,Fall 2016,11,10
-8363365.54972875,4862972.14827827,382,523937N,Bus,UTA,5,Northbound,23937,FRANKFORD AV & SUSQUEHANNA A,39.979558,-75.129391,Fall 2016,7,10
-8363266.03010398,4863107.98020382,383,523938N,Bus,UTA,5,Northbound,23938,FRANKFORD AV & DAUPHIN ST,39.980493,-75.128497,Fall 2016,23,14
-8363170.51798088,4863240.03676679,384,523939N,Bus,UTA,5,Northbound,23939,FRANKFORD AV & TRENTON AV,39.981402,-75.127639,Fall 2016,18,10
-8363065.87765954,4863379.50435131,385,523940N,Bus,UTA,5,Northbound,23940,FRANKFORD AV & HAGERT ST,39.982362,-75.126699,Fall 2016,13,9
-8362967.47122967,4863509.96642817,386,523941N,Bus,UTA,5,Northbound,23941,FRANKFORD AV & CUMBERLAND ST,39.98326,-75.125815,Fall 2016,48,27
-8362868.95348032,4863645.80571345,387,523942N,Bus,UTA,5,Northbound,23942,FRANKFORD AV & SERGEANT ST,39.984195,-75.12493,Fall 2016,39,22
-8362760.97357425,4863803.14915584,388,523943N,Bus,UTA,5,Northbound,23943,FRANKFORD AV & HUNTINGDON ST,39.985278,-75.12396,Fall 2016,38,31
-8362588.98496098,4864035.75469569,389,572N,Bus,UTA,5,Northbound,72,FRANKFORD AV & LEHIGH AV,39.986879,-75.122415,Fall 2016,17,11
-8362345.75187359,4864285.65554103,390,523944N,Bus,UTA,5,Northbound,23944,FRANKFORD AV & SOMERSET ST,39.988599,-75.12023,Fall 2016,31,20
-8362075.57946944,4864444.46208052,391,523945N,Bus,UTA,5,Northbound,23945,FRANKFORD AV & CAMBRIA ST,39.989692,-75.117803,Fall 2016,77,30
-8361898.2475206,4864536.1438655,392,523946N,Bus,UTA,5,Northbound,23946,FRANKFORD AV & ORLEANS ST,39.990323,-75.11621,Fall 2016,50,46
-8361698.20639565,4864642.21101257,393,523947N,Bus,UTA,5,Northbound,23947,FRANKFORD AV & ELKHART ST,39.991053,-75.114413,Fall 2016,74,49
-8361527.77625524,4864738.25361273,394,523948N,Bus,UTA,5,Northbound,23948,FRANKFORD AV & CLEARFIELD ST,39.991714,-75.112882,Fall 2016,50,58
-8361254.37558586,4864907.67444409,395,523949N,Bus,UTA,5,Northbound,23949,FRANKFORD AV & ALLEGHENY AV,39.99288,-75.110426,Fall 2016,126,112
-8360971.62407924,4865095.40656498,396,523950N,Bus,UTA,5,Northbound,23950,FRANKFORD AV & WESTMORELAND,39.994172,-75.107886,Fall 2016,28,23
-8360721.48918343,4865271.9535567,397,523951N,Bus,UTA,5,Northbound,23951,FRANKFORD AV & ONTARIO ST,39.995387,-75.105639,Fall 2016,53,50
-8360476.47498419,4865470.15490951,398,523952N,Bus,UTA,5,Northbound,23952,FRANKFORD AV & TIOGA ST,39.996751,-75.103438,Fall 2016,50,72
-8360241.14558066,4865672.71962,399,523953N,Bus,UTA,5,Northbound,23953,FRANKFORD AV & VENANGO ST,39.998145,-75.101324,Fall 2016,59,69
-8359997.13325684,4865885.60592788,400,523954N,Bus,UTA,5,Northbound,23954,FRANKFORD AV & CASTOR AV,39.99961,-75.099132,Fall 2016,48,48
-8359854.31035015,4866030.77811814,401,523955N,Bus,UTA,5,Northbound,23955,FRANKFORD AV & GLENWOOD AV,40.000609,-75.097849,Fall 2016,24,22
-8359631.11477111,4866291.48305908,402,523956N,Bus,UTA,5,Northbound,23956,FRANKFORD AV & VALETTA ST,40.002403,-75.095844,Fall 2016,3,2
-8359526.58576925,4866415.44383128,403,526509N,Bus,UTA,5,Northbound,26509,FRANKFORD AV & BUCKIUS ST,40.003256,-75.094905,Fall 2016,10,11
-8359433.52267495,4866526.18149318,404,523957N,Bus,UTA,5,Northbound,23957,FRANKFORD AV & WHEATSHEAF LN,40.004018,-75.094069,Fall 2016,12,20
-8359306.50713595,4866677.61216011,405,523958N,Bus,UTA,5,Northbound,23958,FRANKFORD AV & JASPER ST,40.00506,-75.092928,Fall 2016,9,31
-8359214.00063911,4866791.55000136,406,573N,Bus,UTA,5,Northbound,73,FRANKFORD AV & TORRESDALE AV,40.005844,-75.092097,Fall 2016,20,86
-8359064.27592399,4867022.77227011,407,523959N,Bus,UTA,5,Northbound,23959,FRANKFORD AV & ADAMS ST,40.007435,-75.090752,Fall 2016,29,13
-8358955.62810097,4867194.12147552,408,523960N,Bus,UTA,5,Northbound,23960,FRANKFORD AV & WOMRATH ST,40.008614,-75.089776,Fall 2016,19,11
-8358849.31798727,4867379.13543326,409,523961N,Bus,UTA,5,Northbound,23961,FRANKFORD AV & RUAN ST,40.009887,-75.088821,Fall 2016,32,31
-8358766.7189251,4867517.78916067,410,523962N,Bus,UTA,5,Northbound,23962,FRANKFORD AV & CHURCH ST,40.010841,-75.088079,Fall 2016,22,27
-8358664.97291051,4867695.1059755,411,523963N,Bus,UTA,5,Northbound,23963,FRANKFORD AV & UNITY ST,40.012061,-75.087165,Fall 2016,42,50
-8358515.69347336,4867893.79177846,412,523964N,Bus,UTA,5,Northbound,23964,FRANKFORD AV & SELLERS ST,40.013428,-75.085824,Fall 2016,37,36
-8358425.85864429,4868076.49320888,413,519010N,Bus,UTA,5,Northbound,19010,FRANKFORD AV & ORTHODOX ST,40.014685,-75.085017,Fall 2016,35,45
-8358291.16206043,4868345.68235476,414,523965N,Bus,UTA,5,Northbound,23965,FRANKFORD AV & MARGARET ST,40.016537,-75.083807,Fall 2016,83,149
-8358175.83506797,4868519.81615788,415,523966N,Bus,UTA,5,Northbound,23966,FRANKFORD AV & FOULKROD ST,40.017735,-75.082771,Fall 2016,17,38
-8358045.70258323,4868704.70948533,416,523967N,Bus,UTA,5,Northbound,23967,FRANKFORD AV & HARRISON ST,40.019007,-75.081602,Fall 2016,11,38
-8357923.80774081,4868877.68670935,417,523968N,Bus,UTA,5,Northbound,23968,FRANKFORD AV & WAKELING ST,40.020197,-75.080507,Fall 2016,6,42
-8357808.81470682,4869041.65445973,418,523969N,Bus,UTA,5,Northbound,23969,FRANKFORD AV & DYRE ST,40.021325,-75.079474,Fall 2016,3,32
-8357701.83667617,4869235.27944267,419,520844N,Bus,UTA,5,Northbound,20844,FRANKFORD TRANSPORTATION,40.022657,-75.078513,Fall 2016,0,564
-8366672.18388327,4876853.17815799,420,6136S,Bus,UTA,6,Southbound,136,CHELTENHAM AV & OGONTZ AV LO,40.075042,-75.159095,Fall 2016,823,0
-8366589.25086263,4876628.85473477,421,611120S,Bus,UTA,6,Southbound,11120,OGONTZ AV & 80TH AV,40.0735,-75.15835,Fall 2016,71,3
-8366544.72306632,4876461.85200841,422,611119S,Bus,UTA,6,Southbound,11119,OGONTZ AV & 79TH AV,40.072352,-75.15795,Fall 2016,61,3
-8366508.6555513,4876319.72734089,423,611117S,Bus,UTA,6,Southbound,11117,OGONTZ AV & 78TH AV,40.071375,-75.157626,Fall 2016,69,6
-8366475.70498202,4876187.4964974,424,611115S,Bus,UTA,6,Southbound,11115,OGONTZ AV & 77TH AV,40.070466,-75.15733,Fall 2016,57,7
-8366445.20344155,4876065.30454752,425,611112S,Bus,UTA,6,Southbound,11112,OGONTZ AV & 76H AV,40.069626,-75.157056,Fall 2016,67,12
-8366410.13780195,4875919.69444169,426,611138S,Bus,UTA,6,Southbound,11138,OGONTZ AV & WASHINGTON LN,40.068625,-75.156741,Fall 2016,94,13
-8366354.92333451,4875706.88352069,427,611111S,Bus,UTA,6,Southbound,11111,OGONTZ AV & 74TH AV,40.067162,-75.156245,Fall 2016,174,17
-8366195.62514319,4875409.13045684,428,611137S,Bus,UTA,6,Southbound,11137,OGONTZ AV & TULPEHOCKEN ST,40.065115,-75.154814,Fall 2016,98,23
-8366075.84537109,4875293.78445882,429,614888S,Bus,UTA,6,Southbound,14888,OGONTZ AV & WALNUT LN,40.064322,-75.153738,Fall 2016,188,62
-8365882.48341559,4875007.67981523,430,611134S,Bus,UTA,6,Southbound,11134,OGONTZ AV & MIDDLETOWN ST,40.062355,-75.152001,Fall 2016,238,48
-8365803.22393814,4874848.55859056,431,611121S,Bus,UTA,6,Southbound,11121,OGONTZ AV & ANDREWS AV,40.061261,-75.151289,Fall 2016,55,15
-8365710.71744129,4874657.73284946,432,677S,Bus,UTA,6,Southbound,77,OGONTZ AV & 69TH AV,40.059949,-75.150458,Fall 2016,81,30
-8365634.01831214,4874465.16547587,433,678S,Bus,UTA,6,Southbound,78,OGONTZ AV & HAINES ST,40.058625,-75.149769,Fall 2016,51,28
-8365609.0827462,4874303.72592368,434,611104S,Bus,UTA,6,Southbound,11104,OGONTZ AV & 68TH AV,40.057515,-75.149545,Fall 2016,93,29
-8365615.53927666,4874122.50952304,435,611102S,Bus,UTA,6,Southbound,11102,OGONTZ AV & 67TH AV,40.056269,-75.149603,Fall 2016,102,31
-8365632.68247825,4873920.49931906,436,679S,Bus,UTA,6,Southbound,79,OGONTZ AV & 66TH AV,40.05488,-75.149757,Fall 2016,118,72
-8365652.83130608,4873702.9320991,437,611098S,Bus,UTA,6,Southbound,11098,OGONTZ AV & 65TH AV,40.053384,-75.149938,Fall 2016,50,26
-8365673.53673137,4873482.60652612,438,680S,Bus,UTA,6,Southbound,80,OGONTZ AV & STENTON AV,40.051869,-75.150124,Fall 2016,129,101
-8365699.02889476,4873250.65189154,439,625288S,Bus,UTA,6,Southbound,25288,OGONTZ AV & MEDARY AV,40.050274,-75.150353,Fall 2016,107,35
-8365714.72494296,4873024.37410533,440,611128S,Bus,UTA,6,Southbound,11128,OGONTZ AV & GODFREY AV,40.048718,-75.150494,Fall 2016,150,65
-8365677.989511,4872709.5424625,441,611127S,Bus,UTA,6,Southbound,11127,OGONTZ AV & CHURCH LN,40.046553,-75.150164,Fall 2016,86,38
-8365571.5680778,4872572.27027145,442,611135S,Bus,UTA,6,Southbound,11135,OGONTZ AV & ROSELYN ST,40.045609,-75.149208,Fall 2016,11,6
-8365476.38991317,4872479.06004733,443,65755S,Bus,UTA,6,Southbound,5755,CHAMPLOST AV & OGONTZ AV - F,40.044968,-75.148353,Fall 2016,51,29
-8365348.03854029,4872418.13215298,444,65748S,Bus,UTA,6,Southbound,5748,CHAMPLOST AV & 17TH ST,40.044549,-75.1472,Fall 2016,14,10
-8365219.90980639,4872358.07710089,445,65746S,Bus,UTA,6,Southbound,5746,CHAMPLOST AV & 16TH ST,40.044136,-75.146049,Fall 2016,16,10
-8365088.88676572,4872296.85912926,446,65757S,Bus,UTA,6,Southbound,5757,CHAMPLOST AV & OLD YORK RD,40.043715,-75.144872,Fall 2016,22,46
-8364973.1144953,4872260.07036379,447,65751S,Bus,UTA,6,Southbound,5751,CHAMPLOST AV & BROAD ST,40.043462,-75.143832,Fall 2016,30,48
-8364924.35655833,4872099.82998163,448,610940S,Bus,UTA,6,Southbound,10940,NEDRO AV & PARK AV,40.04236,-75.143394,Fall 2016,11,49
-8364927.02822611,4871922.57979915,449,611624S,Bus,UTA,6,Southbound,11624,PARK AV & GRANGE ST,40.041141,-75.143418,Fall 2016,4,22
-8364958.08636404,4871726.57590393,450,611623S,Bus,UTA,6,Southbound,11623,PARK AV & CHEW AV,40.039793,-75.143697,Fall 2016,4,55
-8365084.99058354,4871586.1185226,451,617225S,Bus,UTA,6,Southbound,17225,BROAD ST & OLNEY AV - FS,40.038827,-75.144837,Fall 2016,0,22
-8364991.2595723,4871560.5281581,452,6382S,Bus,UTA,6,Southbound,382,OLNEY TRANSPORTATION CEN,40.038651,-75.143995,Fall 2016,0,2206
-8365004.84055017,4871569.39753831,453,6382N,Bus,UTA,6,Northbound,382,OLNEY TRANSPORTATION CENTER,40.038712,-75.144117,Fall 2016,2693,0
-8365055.15696001,4871974.0532746,454,619064N,Bus,UTA,6,Northbound,19064,OLD YORK RD & GRANGE AV - FS,40.041495,-75.144569,Fall 2016,26,21
-8365098.34892244,4872173.84268564,455,616595N,Bus,UTA,6,Northbound,16595,OLD YORK RD & NEDRO AV,40.042869,-75.144957,Fall 2016,39,19
-8365163.24818557,4872372.32741931,456,611217N,Bus,UTA,6,Northbound,11217,OLD YORK RD & CHAMPLOST AV,40.044234,-75.14554,Fall 2016,59,49
-8365324.8840862,4872462.91920831,457,630810N,Bus,UTA,6,Northbound,30810,CHAMPLOST AV & 16TH ST,40.044857,-75.146992,Fall 2016,10,33
-8365484.85019447,4872528.50061868,458,614889N,Bus,UTA,6,Northbound,14889,CHAMPLOST AV & 17TH ST,40.045308,-75.148429,Fall 2016,8,27
-8365607.30163435,4872581.28597143,459,65756N,Bus,UTA,6,Northbound,5756,CHAMPLOST AV & OGONTZ AV,40.045671,-75.149529,Fall 2016,29,66
-8365697.47042189,4872712.30537569,460,614890N,Bus,UTA,6,Northbound,14890,OGONTZ AV & CHURCH LN,40.046572,-75.150339,Fall 2016,28,103
-8365738.4359945,4872983.07460408,461,611132N,Bus,UTA,6,Northbound,11132,OGONTZ AV & LIMEKILN PK - FS,40.048434,-75.150707,Fall 2016,57,256
-8365704.92882777,4873195.24534937,462,611133N,Bus,UTA,6,Northbound,11133,OGONTZ AV & MEDARY AV,40.049893,-75.150406,Fall 2016,32,118
-8365663.40665771,4873472.42658501,463,684N,Bus,UTA,6,Northbound,84,OGONTZ AV & CHELTEN AV - FS,40.051799,-75.150033,Fall 2016,80,151
-8365645.81817816,4873654.64911226,464,614895N,Bus,UTA,6,Northbound,14895,OGONTZ AV & 65TH AV,40.053052,-75.149875,Fall 2016,19,59
-8365626.67122574,4873850.54570135,465,685N,Bus,UTA,6,Northbound,85,OGONTZ AV & 66TH AV,40.054399,-75.149703,Fall 2016,59,128
-8365607.19031486,4874078.58758772,466,611103N,Bus,UTA,6,Northbound,11103,OGONTZ AV & 67TH AV,40.055967,-75.149528,Fall 2016,30,107
-8365595.27912934,4874279.00117944,467,611105N,Bus,UTA,6,Northbound,11105,OGONTZ AV & 68TH AV,40.057345,-75.149421,Fall 2016,33,117
-8365615.53927666,4874436.51339944,468,686N,Bus,UTA,6,Northbound,86,OGONTZ AV & HAINES ST,40.058428,-75.149603,Fall 2016,21,53
-8365678.88006692,4874624.13510016,469,630811N,Bus,UTA,6,Northbound,30811,OGONTZ AV & 69TH AV,40.059718,-75.150172,Fall 2016,23,95
-8365779.84684507,4874838.37724633,470,611122N,Bus,UTA,6,Northbound,11122,OGONTZ AV & ANDREWS AV,40.061191,-75.151079,Fall 2016,16,73
-8365849.53284631,4874977.28077324,471,611108N,Bus,UTA,6,Northbound,11108,OGONTZ AV & 71ST AV,40.062146,-75.151705,Fall 2016,34,218
-8366030.31569936,4875279.52993942,472,630812N,Bus,UTA,6,Northbound,30812,OGONTZ AV & 72ND AV,40.064224,-75.153329,Fall 2016,66,277
-8366169.24242387,4875414.07596471,473,614899N,Bus,UTA,6,Northbound,14899,OGONTZ AV & TULPEHOCKEN ST,40.065149,-75.154577,Fall 2016,17,104
-8366337.33485497,4875688.70098135,474,63939N,Bus,UTA,6,Northbound,3939,OGONTZ AV & 74TH AV,40.067037,-75.156087,Fall 2016,17,178
-8366390.54557157,4875885.36509809,475,614900N,Bus,UTA,6,Northbound,14900,OGONTZ AV & WASHINGTON LN,40.068389,-75.156565,Fall 2016,16,100
-8366440.8619814,4876087.56082615,476,611113N,Bus,UTA,6,Northbound,11113,OGONTZ AV & 76TH AV,40.069779,-75.157017,Fall 2016,10,83
-8366481.93887351,4876251.93881124,477,614901N,Bus,UTA,6,Northbound,14901,OGONTZ AV & 77TH AV,40.070909,-75.157386,Fall 2016,5,57
-8366514.88944278,4876385.6252188,478,614902N,Bus,UTA,6,Northbound,14902,OGONTZ AV & 78TH AV,40.071828,-75.157682,Fall 2016,5,89
-8366546.61549766,4876499.38373478,479,614903N,Bus,UTA,6,Northbound,14903,OGONTZ AV & 79TH AV,40.07261,-75.157967,Fall 2016,4,131
-8366667.73110364,4876833.6842219,480,6136N,Bus,UTA,6,Northbound,136,CHELTENHAM AV & OGONTZ A,40.074908,-75.159055,Fall 2016,0,867
-8369646.08407982,4864748.71519263,481,7644S,Bus,UTA,7,Southbound,644,33RD ST & DAUPHIN ST LOOP,39.991786,-75.18581,Fall 2016,198,0
-8369491.68394609,4864713.98860179,482,716043S,Bus,UTA,7,Southbound,16043,DAUPHIN ST & 32ND ST,39.991547,-75.184423,Fall 2016,6,0
-8369333.38763018,4864679.69802882,483,716210S,Bus,UTA,7,Southbound,16210,DAUPHIN ST & 31ST ST,39.991311,-75.183001,Fall 2016,8,0
-8369154.49720847,4864646.13406578,484,716211S,Bus,UTA,7,Southbound,16211,DAUPHIN ST & 30TH ST,39.99108,-75.181394,Fall 2016,7,1
-8368995.7556146,4864619.39921539,485,716212S,Bus,UTA,7,Southbound,16212,DAUPHIN ST & 29TH ST,39.990896,-75.179968,Fall 2016,56,8
-8368815.08408104,4864586.41664595,486,716213S,Bus,UTA,7,Southbound,16213,DAUPHIN ST & 28TH ST,39.990669,-75.178345,Fall 2016,17,4
-8368655.89720921,4864541.51984431,487,716214S,Bus,UTA,7,Southbound,16214,DAUPHIN ST & 27TH ST,39.99036,-75.176915,Fall 2016,16,3
-8368500.38388057,4864500.98212993,488,716215S,Bus,UTA,7,Southbound,16215,DAUPHIN ST & 26TH ST,39.990081,-75.175518,Fall 2016,35,11
-8368681.83465056,4864361.06290398,489,725200S,Bus,UTA,7,Southbound,25200,SUSQUEHANNA AV & 27TH ST,39.989118,-75.177148,Fall 2016,13,12
-8368855.27041722,4864355.39643483,490,730105S,Bus,UTA,7,Southbound,30105,SUSQUEHANNA AV & 28TH ST,39.989079,-75.178706,Fall 2016,10,3
-8369003.88193743,4864337.37999032,491,725201S,Bus,UTA,7,Southbound,25201,SUSQUEHANNA AV & 29TH ST,39.988955,-75.180041,Fall 2016,24,2
-8369063.66050399,4864179.73749587,492,73196S,Bus,UTA,7,Southbound,3196,29TH ST & DIAMOND ST,39.98787,-75.180578,Fall 2016,25,3
-8369088.8187089,4864039.38693036,493,7747S,Bus,UTA,7,Southbound,747,29TH ST & RIDGE AV,39.986904,-75.180804,Fall 2016,61,6
-8369115.20142822,4863877.09998253,494,725202S,Bus,UTA,7,Southbound,25202,29TH ST & SEDGLEY AV,39.985787,-75.181041,Fall 2016,22,1
-8369171.0838126,4863545.99634622,495,720430S,Bus,UTA,7,Southbound,20430,29TH ST & MONTGOMERY AV,39.983508,-75.181543,Fall 2016,22,3
-8369208.37584202,4863319.35871517,496,72887S,Bus,UTA,7,Southbound,2887,29TH ST & CECIL B MOORE AV,39.981948,-75.181878,Fall 2016,66,20
-8369241.43773078,4863115.2439955,497,72901S,Bus,UTA,7,Southbound,2901,29TH ST & OXFORD ST,39.980543,-75.182175,Fall 2016,33,7
-8369275.72413395,4862904.8867401,498,72891S,Bus,UTA,7,Southbound,2891,29TH ST & JEFFERSON ST,39.979095,-75.182483,Fall 2016,28,5
-8369307.22754984,4862707.89876635,499,72895S,Bus,UTA,7,Southbound,2895,29TH ST & MASTER ST,39.977739,-75.182766,Fall 2016,27,5
-8369336.83853439,4862516.28958347,500,72908S,Bus,UTA,7,Southbound,2908,29TH ST & THOMPSON ST,39.97642,-75.183032,Fall 2016,30,4
-8369371.68153501,4862273.55119039,501,792S,Bus,UTA,7,Southbound,92,29TH ST & GIRARD AV,39.974749,-75.183345,Fall 2016,54,45
-8343703.85598688,4883506.0513831,502,118973S,Bus,UTA,1,Southbound,18973,PARX RACE TRACK,40.120758,-74.952767,Fall 2016,2,1
-8344727.55002421,4883557.73066019,503,122760S,Bus,UTA,1,Southbound,22760,STREET RD & RICHLIEU RD - FS,40.121113,-74.961963,Fall 2016,6,0
-8344829.85263625,4884031.3000945,504,122761S,Bus,UTA,1,Southbound,22761,STREET RD & KINGSTON WAY - F,40.124366,-74.962882,Fall 2016,2,0
-8346289.25116055,4883722.37826902,505,130142S,Bus,UTA,1,Southbound,30142,ROOSEVELT BLVD & OLD LINCOLN,40.122244,-74.975992,Fall 2016,0,1
-8346623.43227191,4883444.03660677,506,122762S,Bus,UTA,1,Southbound,22762,ROOSEVELT BLVD & OLD LINCOLN,40.120332,-74.978994,Fall 2016,9,1
-8347199.39931728,4882944.72991325,507,122764S,Bus,UTA,1,Southbound,22764,ROOSEVELT BLVD & SOUTHAMPTON,40.116902,-74.984168,Fall 2016,0,0
-8345504.56006995,4882320.55918331,508,120590S,Bus,UTA,1,Southbound,20590,TOWNSEND RD & NATL ARCHIVES,40.112614,-74.968943,Fall 2016,8,0
-8345809.13019676,4882145.30936625,509,125953S,Bus,UTA,1,Southbound,25953,TOWNSEND RD & FEDEX - 2,40.11141,-74.971679,Fall 2016,0,0
-8345955.18136868,4882030.90376736,510,125954S,Bus,UTA,1,Southbound,25954,TOWNSEND RD & FEDEX - 1,40.110624,-74.972991,Fall 2016,0,0
-8346184.7221587,4881845.61607909,511,125955S,Bus,UTA,1,Southbound,25955,TOWNSEND RD & MCNULTY RD - M,40.109351,-74.975053,Fall 2016,0,0
-8346437.75136127,4881633.5510797,512,131098S,Bus,UTA,1,Southbound,31098,TOWNSEND RD & MCNULTY RD,40.107894,-74.977326,Fall 2016,6,1
-8346762.13635744,4881773.13212976,513,122604S,Bus,UTA,1,Southbound,22604,MCNULTY RD & COMMERCE WAY,40.108853,-74.98024,Fall 2016,2,0
-8347083.62704685,4881892.92014746,514,122605S,Bus,UTA,1,Southbound,22605,MCNULTY RD & BLACK LAKE PL,40.109676,-74.983128,Fall 2016,2,0
-8347440.9626123,4881965.55052622,515,110485S,Bus,UTA,1,Southbound,10485,MCNULTY RD & SOUTHAMPTON RD,40.110175,-74.986338,Fall 2016,3,0
-8347551.05758869,4882296.83332052,516,11476S,Bus,UTA,1,Southbound,1476,SOUTHHAMPTON RD & ROOSEVELT,40.112451,-74.987327,Fall 2016,1,0
-8347675.73541838,4882529.1454429,517,122765S,Bus,UTA,1,Southbound,22765,ROOSEVELT BLVD & SOUTHAMPTON,40.114047,-74.988447,Fall 2016,12,3
-8347926.53823114,4882277.61978005,518,122766S,Bus,UTA,1,Southbound,22766,ROOSEVELT BLVD & HORNIG RD,40.112319,-74.9907,Fall 2016,3,0
-8348058.11786926,4882125.51390086,519,125956S,Bus,UTA,1,Southbound,25956,ROOSEVELT BLVD & HORNIG RD -,40.111274,-74.991882,Fall 2016,1,0
-8347869.65397135,4880772.82049575,520,122546S,Bus,UTA,1,Southbound,22546,COMLY RD & THORNTON RD,40.10198,-74.990189,Fall 2016,0,0
-8347777.81539144,4880307.99305766,521,122890S,Bus,UTA,1,Southbound,22890,DECATUR RD & COMLY RD - MBFS,40.098786,-74.989364,Fall 2016,0,0
-8347908.9497516,4880044.44530225,522,122549S,Bus,UTA,1,Southbound,22549,DECATUR RD & DARNELL RD - FS,40.096975,-74.990542,Fall 2016,0,0
-8347990.21297987,4879555.05965468,523,127415S,Bus,UTA,1,Southbound,27415,DRUMMOND RD & DECATUR RD - F,40.093612,-74.991272,Fall 2016,0,0
-8348067.58002598,4879412.74508477,524,127416S,Bus,UTA,1,Southbound,27416,DRUMMOND RD & DECATUR RD - M,40.092634,-74.991967,Fall 2016,0,0
-8348277.52858561,4879151.40381815,525,127417S,Bus,UTA,1,Southbound,27417,DRUMMOND RD & 10430 - MBFS,40.090838,-74.993853,Fall 2016,0,0
-8348434.93434559,4878891.37901239,526,122552S,Bus,UTA,1,Southbound,22552,DRUMMOND RD & RED LION RD -,40.089051,-74.995267,Fall 2016,0,0
-8348444.06254384,4878638.63620548,527,122553S,Bus,UTA,1,Southbound,22553,DRUMMOND RD & RED LION RD,40.087314,-74.995349,Fall 2016,0,0
-8348446.84553111,4878489.64174054,528,120423S,Bus,UTA,1,Southbound,20423,RED LION RD & DECATUR RD - M,40.08629,-74.995374,Fall 2016,0,0
-8348453.63602005,4878362.47440949,529,112S,Bus,UTA,1,Southbound,12,DECATUR RD & DRUMMOND RD - M,40.085416,-74.995435,Fall 2016,0,0
-8348474.45276482,4878405.54233877,530,122887S,Bus,UTA,1,Southbound,22887,DECATUR RD & DRUMMOND RD,40.085712,-74.995622,Fall 2016,0,0
-8348468.21887334,4878677.48571659,531,122888S,Bus,UTA,1,Southbound,22888,DECATUR RD & DARNELL RD,40.087581,-74.995566,Fall 2016,1,0
-8348357.90125796,4879152.2768844,532,131366S,Bus,UTA,1,Southbound,31366,DECATUR RD & COMLY RD - MBNS,40.090844,-74.994575,Fall 2016,0,0
-8348306.80561169,4879278.14474042,533,122943S,Bus,UTA,1,Southbound,22943,COMLY RD & DECATUR RD - FS,40.091709,-74.994116,Fall 2016,0,0
-8348243.7987799,4879414.20023362,534,122892S,Bus,UTA,1,Southbound,22892,COMLY RD & THORTON RD - FS,40.092644,-74.99355,Fall 2016,0,0
-8348062.12537093,4879783.96048711,535,122893S,Bus,UTA,1,Southbound,22893,COMLY RD & NORCOM RD,40.095185,-74.991918,Fall 2016,0,0
-8348146.72818393,4879938.94085043,536,127418S,Bus,UTA,1,Southbound,27418,COMLY RD & NORCOM RD - MBFS,40.09625,-74.992678,Fall 2016,0,0
-8348294.44914821,4880102.80066116,537,1980S,Bus,UTA,1,Southbound,980,COMLY RD & CAROLINE RD,40.097376,-74.994005,Fall 2016,0,0
-8348459.31331408,4880277.28669091,538,122894S,Bus,UTA,1,Southbound,22894,COMLY RD & NESTOR RD,40.098575,-74.995486,Fall 2016,0,0
-8348593.78725896,4880419.32262653,539,122895S,Bus,UTA,1,Southbound,22895,COMLY RD & ROOSEVELT BLVD -,40.099551,-74.996694,Fall 2016,0,0
-8348771.34184677,4881423.0916111,540,1327S,Bus,UTA,1,Southbound,327,ROOSEVELT BLVD & BYBERRY RD,40.106448,-74.998289,Fall 2016,0,0
-8349269.38524858,4881994.80660088,541,125929S,Bus,UTA,1,Southbound,25929,BYBERRY RD & EVANS ST - FS,40.110376,-75.002763,Fall 2016,4,0
-8349104.85504119,4881669.64692902,542,118S,Bus,UTA,1,Southbound,18,ROOSEVELT BLVD & BYBERRY RD,40.108142,-75.001285,Fall 2016,0,0
-8349117.43414365,4881247.56659614,543,119S,Bus,UTA,1,Southbound,19,ROOSEVELT BLVD & COMLY RD,40.105242,-75.001398,Fall 2016,6,1
-8350435.67955362,4879406.0514028,544,123673S,Bus,UTA,1,Southbound,23673,RED LION RD & CONGDON PKWY -,40.092588,-75.01324,Fall 2016,70,0
-8349320.03561689,4881071.75361433,545,121944S,Bus,UTA,1,Southbound,21944,ROOSEVELT BLVD & BENNETT RD,40.104034,-75.003218,Fall 2016,7,1
-8349473.09991673,4880907.15008437,546,125957S,Bus,UTA,1,Southbound,25957,ROOSEVELT BLVD & BENNETT RD,40.102903,-75.004593,Fall 2016,0,0
-8349695.40493985,4880716.06206232,547,121945S,Bus,UTA,1,Southbound,21945,ROOSEVELT BLVD & PLAZA DR -,40.10159,-75.00659,Fall 2016,11,1
-8349901.56863679,4880531.67216626,548,125958S,Bus,UTA,1,Southbound,25958,ROOSEVELT BLVD & HALDEMAN AV,40.100323,-75.008442,Fall 2016,7,1
-8350066.43280266,4880380.17522368,549,121946S,Bus,UTA,1,Southbound,21946,ROOSEVELT BLVD & HALDEMAN AV,40.099282,-75.009923,Fall 2016,8,0
-8350371.8934854,4880088.24817039,550,121947S,Bus,UTA,1,Southbound,21947,ROOSEVELT BLVD & TOMLINSON R,40.097276,-75.012667,Fall 2016,5,1
-8350513.49187768,4879941.85130299,551,121948S,Bus,UTA,1,Southbound,21948,ROOSEVELT BLVD & GREYMONT ST,40.09627,-75.013939,Fall 2016,4,0
-8350668.44860887,4879766.35254293,552,121949S,Bus,UTA,1,Southbound,21949,ROOSEVELT BLVD & RED LION RD,40.095064,-75.015331,Fall 2016,42,4
-8350899.32523277,4879435.88197686,553,122767S,Bus,UTA,1,Southbound,22767,ROOSEVELT BLVD & WHITTEN ST,40.092793,-75.017405,Fall 2016,4,0
-8351319.7789495,4878878.42887876,554,122768S,Bus,UTA,1,Southbound,22768,ROOSEVELT BLVD & CONWELL AV,40.088962,-75.021182,Fall 2016,2,1
-8351654.07138035,4878433.62389352,555,122770S,Bus,UTA,1,Southbound,22770,ROOSEVELT BLVD & BOWLER ST,40.085905,-75.024185,Fall 2016,4,0
-8351782.8680312,4878261.35281157,556,122771S,Bus,UTA,1,Southbound,22771,ROOSEVELT BLVD & LOTT ST,40.084721,-75.025342,Fall 2016,2,0
-8351930.03239803,4878063.91404848,557,122773S,Bus,UTA,1,Southbound,22773,ROOSEVELT BLVD & FULMER ST,40.083364,-75.026664,Fall 2016,14,2
-8352186.84646329,4877717.93283989,558,122900S,Bus,UTA,1,Southbound,22900,ROOSEVELT BLVD & GRANT AV,40.080986,-75.028971,Fall 2016,26,8
-8352411.93447367,4877413.28151158,559,122896S,Bus,UTA,1,Southbound,22896,ROOSEVELT BLVD & MICHENER ST,40.078892,-75.030993,Fall 2016,6,1
-8352646.03936281,4877095.54626796,560,122897S,Bus,UTA,1,Southbound,22897,ROOSEVELT BLVD & GOODNAW ST,40.076708,-75.033096,Fall 2016,6,3
-8352877.80654264,4876775.49359605,561,122898S,Bus,UTA,1,Southbound,22898,ROOSEVELT BLVD & WELSH RD,40.074508,-75.035178,Fall 2016,39,14
-8353052.68946268,4876516.84040014,562,122899S,Bus,UTA,1,Southbound,22899,ROOSEVELT BLVD & TREMONT ST,40.07273,-75.036749,Fall 2016,2,1
-8353196.95952275,4876298.05241724,563,110S,Bus,UTA,1,Southbound,10,ROOSEVELT BLVD & WOODWARD ST,40.071226,-75.038045,Fall 2016,13,3
-8353388.76300538,4875918.8216603,564,122901S,Bus,UTA,1,Southbound,22901,ROOSEVELT BLVD & WINCHESTER,40.068619,-75.039768,Fall 2016,1,0
-8353680.53139075,4875220.62117364,565,125960S,Bus,UTA,1,Southbound,25960,ROOSEVELT BLVD & STRAHLE ST,40.063819,-75.042389,Fall 2016,1,0
-8353783.27928076,4874981.35336675,566,122902S,Bus,UTA,1,Southbound,22902,ROOSEVELT BLVD & STRAHLE ST,40.062174,-75.043312,Fall 2016,7,3
-8353869.21792765,4874776.12582629,567,122903S,Bus,UTA,1,Southbound,22903,ROOSEVELT BLVD & HOFFNAGLE S,40.060763,-75.044084,Fall 2016,4,5
-8353996.01082766,4874497.1628165,568,121S,Bus,UTA,1,Southbound,21,ROOSEVELT BLVD & SOLLY AV -,40.058845,-75.045223,Fall 2016,15,6
-8354095.75309141,4874348.37605926,569,122904S,Bus,UTA,1,Southbound,22904,ROOSEVELT BLVD & STANWOOD ST,40.057822,-75.046119,Fall 2016,1,1
-8354183.58416965,4874223.58888842,570,122905S,Bus,UTA,1,Southbound,22905,ROOSEVELT BLVD & RHAWN ST,40.056964,-75.046908,Fall 2016,21,14
-8354428.15309092,4873863.19839812,571,122907S,Bus,UTA,1,Southbound,22907,ROOSEVELT BLVD & BORBECK AV,40.054486,-75.049105,Fall 2016,8,3
-8354599.13982878,4873519.69068571,572,122909S,Bus,UTA,1,Southbound,22909,ROOSEVELT BLVD & NAPFLE ST,40.052124,-75.050641,Fall 2016,1,0
-8354674.72576303,4873305.18619217,573,122910S,Bus,UTA,1,Southbound,22910,ROOSEVELT BLVD & FAUNCE ST,40.050649,-75.05132,Fall 2016,6,2
-8354761.44364636,4873031.35431972,574,122911S,Bus,UTA,1,Southbound,22911,ROOSEVELT BLVD & SHELMIRE AV,40.048766,-75.052099,Fall 2016,2,0
-8354873.54237359,4872750.98624121,575,122912S,Bus,UTA,1,Southbound,22912,ROOSEVELT BLVD & BLEIGH AV,40.046838,-75.053106,Fall 2016,1,1
-8355045.30834788,4872447.79628388,576,122S,Bus,UTA,1,Southbound,22,ROOSEVELT BLVD & COTTMAN AV,40.044753,-75.054649,Fall 2016,64,59
-8355332.40131463,4872110.00851326,577,122913S,Bus,UTA,1,Southbound,22913,ROOSEVELT BLVD & FRIENDSHIP,40.04243,-75.057228,Fall 2016,5,2
-8355583.53808586,4871827.48543725,578,122915S,Bus,UTA,1,Southbound,22915,ROOSEVELT BLVD & TYSON AV,40.040487,-75.059484,Fall 2016,9,5
-8355724.02328325,4871666.3796397,579,122916S,Bus,UTA,1,Southbound,22916,ROOSEVELT BLVD & LONGSHORE A,40.039379,-75.060746,Fall 2016,3,3
-8356047.51772349,4871373.8368157,580,122918S,Bus,UTA,1,Southbound,22918,ROOSEVELT BLVD & UNRUH AV,40.037367,-75.063652,Fall 2016,4,8
-8356160.28436767,4871303.02879145,581,122919S,Bus,UTA,1,Southbound,22919,ROOSEVELT BLVD & HARBISON AV,40.03688,-75.064665,Fall 2016,8,12
-8356305.89026162,4871250.39563906,582,122920S,Bus,UTA,1,Southbound,22920,ROOSEVELT BLVD & MAGEE AV,40.036518,-75.065973,Fall 2016,3,2
-8356539.43855331,4871175.51746451,583,122921S,Bus,UTA,1,Southbound,22921,ROOSEVELT BLVD & HELLERMAN S,40.036003,-75.068071,Fall 2016,2,3
-8356699.73862005,4871122.73959579,584,122922S,Bus,UTA,1,Southbound,22922,ROOSEVELT BLVD & LEVICK ST,40.03564,-75.069511,Fall 2016,20,10
-8357051.39689146,4871013.54991074,585,127452S,Bus,UTA,1,Southbound,27452,ROOSEVELT BLVD & ROBBINS AV,40.034889,-75.07267,Fall 2016,7,3
-8357301.08650931,4870936.92883902,586,122924S,Bus,UTA,1,Southbound,22924,ROOSEVELT BLVD & DEVEREAUX A,40.034362,-75.074913,Fall 2016,9,4
-8357863.36125731,4870763.62491782,587,122926S,Bus,UTA,1,Southbound,22926,ROOSEVELT BLVD & LARGE ST,40.03317,-75.079964,Fall 2016,12,8
-8358100.58309219,4870691.0766086,588,122927S,Bus,UTA,1,Southbound,22927,ROOSEVELT BLVD & VAN KIRK ST,40.032671,-75.082095,Fall 2016,1,6
-8358309.30713743,4870622.59963333,589,122928S,Bus,UTA,1,Southbound,22928,ROOSEVELT BLVD & OXFORD CIR,40.0322,-75.08397,Fall 2016,28,15
-8358606.64149734,4870461.94956227,590,122929S,Bus,UTA,1,Southbound,22929,ROOSEVELT BLVD & SANGER ST,40.031095,-75.086641,Fall 2016,14,6
-8358777.96219367,4870350.73180692,591,122930S,Bus,UTA,1,Southbound,22930,ROOSEVELT BLVD & BRIDGE ST,40.03033,-75.08818,Fall 2016,4,5
-8359093.88690854,4870174.38516486,592,123S,Bus,UTA,1,Southbound,23,ROOSEVELT BLVD & PRATT ST -,40.029117,-75.091018,Fall 2016,26,11
-8360239.69842727,4870216.54524746,593,124S,Bus,UTA,1,Southbound,24,ROOSEVELT BLVD & TOWER BLVD,40.029407,-75.101311,Fall 2016,43,53
-8361986.85783528,4869851.35765228,594,1124S,Bus,UTA,1,Southbound,124,ROOSEVELT BLVD & C ST,40.026895,-75.117006,Fall 2016,28,33
-8362493.02755991,4869750.61360038,595,123046S,Bus,UTA,1,Southbound,23046,ROOSEVELT BLVD & RISING SUN,40.026202,-75.121553,Fall 2016,20,31
-8362684.1631256,4869712.96204571,596,123047S,Bus,UTA,1,Southbound,23047,ROOSEVELT BLVD & FRONT ST,40.025943,-75.12327,Fall 2016,10,6
-8362906.57946821,4869668.33278189,597,1132S,Bus,UTA,1,Southbound,132,ROOSEVELT BLVD & MASCHER ST,40.025636,-75.125268,Fall 2016,19,16
-8363756.83773889,4869458.70876399,598,125S,Bus,UTA,1,Southbound,25,ROOSEVELT BLVD & 5TH ST,40.024194,-75.132906,Fall 2016,59,64
-8364244.97370602,4869262.02673446,599,1174S,Bus,UTA,1,Southbound,174,ROOSEVELT BLVD & 7TH ST - FS,40.022841,-75.137291,Fall 2016,3,11
-8364490.21054424,4869121.74962114,600,1204S,Bus,UTA,1,Southbound,204,ROOSEVELT BLVD & 9TH ST,40.021876,-75.139494,Fall 2016,18,21
-8365538.61750853,4868595.69177623,601,120856S,Bus,UTA,1,Southbound,20856,ROOSEVELT BLVD & BROAD ST,40.018257,-75.148912,Fall 2016,41,145
-8365649.15776288,4868528.68281896,602,123048S,Bus,UTA,1,Southbound,23048,ROOSEVELT BLVD & BROAD ST -,40.017796,-75.149905,Fall 2016,28,21
-8366072.83974484,4868270.82610847,603,123049S,Bus,UTA,1,Southbound,23049,HUNTING PARK AV & GERMANTOWN,40.016022,-75.153711,Fall 2016,22,50
-8366386.64938939,4868084.19668441,604,123050S,Bus,UTA,1,Southbound,23050,HUNTING PARK AV & CLARRISA S,40.014738,-75.15653,Fall 2016,28,31
-8366865.21188031,4867792.48623026,605,123271S,Bus,UTA,1,Southbound,23271,HUNTING PARK AV & BLAINE ST,40.012731,-75.160829,Fall 2016,6,8
-8367504.51971593,4867406.31373656,606,118218S,Bus,UTA,1,Southbound,18218,HUNTING PARK AV & WISSAH,40.010074,-75.166572,Fall 2016,59,76
-8367898.14543538,4867195.86550301,607,118272S,Bus,UTA,1,Southbound,18272,HUNTING PARK AV & STOKELY ST,40.008626,-75.170108,Fall 2016,3,7
-8368107.42607807,4867101.39778914,608,118321S,Bus,UTA,1,Southbound,18321,HUNTING PARK AV & FOX ST,40.007976,-75.171988,Fall 2016,12,24
-8368332.84804693,4866980.18976299,609,132307S,Bus,UTA,1,Southbound,32307,HUNTING PARK AV & WESTMORELA,40.007142,-75.174013,Fall 2016,0,0
-8368486.46894422,4866872.93497479,610,118331S,Bus,UTA,1,Southbound,18331,HUNTING PK AV & WESTMORELAND,40.006404,-75.175393,Fall 2016,1,2
-8368617.3806654,4866752.89237285,611,123051S,Bus,UTA,1,Southbound,23051,29TH ST & HUNTING PARK AV -,40.005578,-75.176569,Fall 2016,0,3
-8368666.36124134,4866654.06904481,612,1261S,Bus,UTA,1,Southbound,261,29TH ST & ALLEGHENY AV,40.004898,-75.177009,Fall 2016,21,69
-8368830.78012925,4866666.71256275,613,1275S,Bus,UTA,1,Southbound,275,ALLEGHENY AV & HUNTING PARK,40.004985,-75.178486,Fall 2016,8,10
-8369028.92882286,4866698.97540568,614,14344S,Bus,UTA,1,Southbound,4344,ALLEGHENY AV & NAPA ST,40.005207,-75.180266,Fall 2016,7,9
-8369208.37584202,4866732.69164193,615,14345S,Bus,UTA,1,Southbound,4345,ALLEGHENY AV & 32ND ST,40.005439,-75.181878,Fall 2016,3,4
-8369383.25876205,4866773.0931449,616,14346S,Bus,UTA,1,Southbound,4346,ALLEGHENY AV & 33RD ST,40.005717,-75.183449,Fall 2016,5,6
-8369559.36619649,4866810.73354211,617,14349S,Bus,UTA,1,Southbound,4349,ALLEGHENY AV & 34TH ST,40.005976,-75.185031,Fall 2016,2,5
-8369734.13779703,4866850.99003229,618,14350S,Bus,UTA,1,Southbound,4350,ALLEGHENY AV & 35TH ST,40.006253,-75.186601,Fall 2016,2,2
-8369877.29466219,4866896.91460322,619,123052S,Bus,UTA,1,Southbound,23052,ALLEGHENY AV & RIDGE AV,40.006569,-75.187887,Fall 2016,11,5
-8370061.19446098,4867008.82030225,620,118008S,Bus,UTA,1,Southbound,18008,RIDGE AV & SCOTTS LN - MBFS,40.007339,-75.189539,Fall 2016,1,2
-8370532.74382399,4867237.1409096,621,121626S,Bus,UTA,1,Southbound,21626,RIDGE AV & MIDVALE AV,40.00891,-75.193775,Fall 2016,13,17
-8370822.84241699,4867392.07055229,622,118013S,Bus,UTA,1,Southbound,18013,RIDGE AV & CALUMET ST,40.009976,-75.196381,Fall 2016,5,5
-8370983.69908119,4867479.71006137,623,118014S,Bus,UTA,1,Southbound,18014,RIDGE AV & MERRICK RD,40.010579,-75.197826,Fall 2016,2,3
-8371733.2132127,4867974.74975369,624,118017S,Bus,UTA,1,Southbound,18017,RIDGE AV & I-76 RAMP FJ,40.013985,-75.204559,Fall 2016,0,3
-8372042.01348016,4868106.14435505,625,128S,Bus,UTA,1,Southbound,28,WISSAHICKON TRANS CTR -,40.014889,-75.207333,Fall 2016,41,123
-8372568.99994958,4867166.3624127,626,1703S,Bus,UTA,1,Southbound,703,CITY AV & PRESIDENTIAL BLV -,40.008423,-75.212067,Fall 2016,4,21
-8372837.94783933,4866974.81246281,627,120558S,Bus,UTA,1,Southbound,20558,CITY AV & MONUMENT RD - FS,40.007105,-75.214483,Fall 2016,3,13
-8373032.75694822,4866849.10073488,628,16252S,Bus,UTA,1,Southbound,6252,CITY AV & DECKER BLVD - FS,40.00624,-75.216233,Fall 2016,1,5
-8373257.17704166,4866703.33525737,629,16255S,Bus,UTA,1,Southbound,6255,CITY AV & KINGS GRANT DR,40.005237,-75.218249,Fall 2016,5,28
-8373698.22486418,4866422.71004417,630,1952S,Bus,UTA,1,Southbound,952,CITY AV & BELMONT AV - MBFS,40.003306,-75.222211,Fall 2016,3,29
-8373898.04335016,4866296.27869908,631,16236S,Bus,UTA,1,Southbound,6236,CITY AV & 47TH ST - FS,40.002436,-75.224006,Fall 2016,6,11
-8374104.2070471,4866161.85633479,632,120559S,Bus,UTA,1,Southbound,20559,CITY AV & CONSHOHOCKEN STATE,40.001511,-75.225858,Fall 2016,2,7
-8374392.63584775,4865968.14601179,633,11169S,Bus,UTA,1,Southbound,1169,CITY AV & BALA AV,40.000178,-75.228449,Fall 2016,2,10
-8374621.17476235,4865805.24625934,634,120561S,Bus,UTA,1,Southbound,20561,CITY AV & BRYN MAWR AV,39.999057,-75.230502,Fall 2016,1,7
-8374848.71180153,4865564.75240531,635,13555S,Bus,UTA,1,Southbound,3555,52ND ST & CITY AV - FS,39.997402,-75.232546,Fall 2016,6,16
-8374838.58172787,4865401.42334686,636,129553S,Bus,UTA,1,Southbound,29553,52ND ST & REXFORD RD,39.996278,-75.232455,Fall 2016,3,4
-8374853.9438176,4865250.30276899,637,13566S,Bus,UTA,1,Southbound,3566,52ND ST & OVERBROOK AV,39.995238,-75.232593,Fall 2016,0,5
-8374988.1951235,4865208.89032006,638,111506S,Bus,UTA,1,Southbound,11506,OVERBROOK AV & 54TH ST,39.994953,-75.233799,Fall 2016,2,42
-8375090.9430135,4865483.2328506,639,120589S,Bus,UTA,1,Southbound,20589,54TH ST & CITY AV,39.996841,-75.234722,Fall 2016,0,44
-8375045.41334176,4865540.04943922,640,120589N,Bus,UTA,1,Northbound,20589,54TH ST & CITY AV,39.997232,-75.234313,Fall 2016,82,0
-8374682.84576025,4865792.89446925,641,16232N,Bus,UTA,1,Northbound,6232,CITY AV & BRYN MAWR AV,39.998972,-75.231056,Fall 2016,9,1
-8374451.41253889,4865936.75744827,642,130187N,Bus,UTA,1,Northbound,30187,CITY AV & BALA AV,39.999962,-75.228977,Fall 2016,9,1
-8374100.75614289,4866154.15435178,643,16233N,Bus,UTA,1,Northbound,6233,CITY AV & CONSHOHOCKEN AV -,40.001458,-75.225827,Fall 2016,6,1
-8373788.05969325,4866347.14169019,644,16237N,Bus,UTA,1,Northbound,6237,CITY AV & 47TH ST - FS,40.002786,-75.223018,Fall 2016,13,5
-8373466.01240639,4866545.94582529,645,120587N,Bus,UTA,1,Northbound,20587,CITY AV & BELMONT AV - FS,40.004154,-75.220125,Fall 2016,14,2
-8373200.18146237,4866711.0376667,646,16251N,Bus,UTA,1,Northbound,6251,CITY AV & KINGS GRANT DR - M,40.00529,-75.217737,Fall 2016,12,2
-8372957.05969448,4866864.65111662,647,16234N,Bus,UTA,1,Northbound,6234,CITY AV & DECKER BLVD - FS,40.006347,-75.215553,Fall 2016,3,1
-8372796.87094723,4866965.94719048,648,120550N,Bus,UTA,1,Northbound,20550,CITY AV & MONUMENT RD,40.007044,-75.214114,Fall 2016,11,3
-8372502.31957459,4867155.60761342,649,1699N,Bus,UTA,1,Northbound,699,CITY AV & PRESIDENTIAL BLVD,40.008349,-75.211468,Fall 2016,17,3
-8371993.1442237,4868073.87693553,650,128N,Bus,UTA,1,Northbound,28,WISSAHICKON TRANS CTR - ONSI,40.014667,-75.206894,Fall 2016,82,16
-8371825.1631121,4868015.73770583,651,118394N,Bus,UTA,1,Northbound,18394,RIDGE AV & I-76 RAMP FJ - FS,40.014267,-75.205385,Fall 2016,1,0
-8371573.5810629,4867880.56531388,652,118395N,Bus,UTA,1,Northbound,18395,RIDGE AV & SCHOOL HOUSE LN,40.013337,-75.203125,Fall 2016,16,4
-8371340.58936867,4867716.90744202,653,124116N,Bus,UTA,1,Northbound,24116,RIDGE AV & SCHOOL HOUSE LN -,40.012211,-75.201032,Fall 2016,0,0
-8371159.69519613,4867572.43728376,654,124117N,Bus,UTA,1,Northbound,24117,RIDGE AV & MERRICK RD - MBNS,40.011217,-75.199407,Fall 2016,0,0
-8370988.81977776,4867475.64054796,655,118396N,Bus,UTA,1,Northbound,18396,RIDGE AV & MERRICK RD,40.010551,-75.197872,Fall 2016,1,1
-8370831.1913788,4867386.25701356,656,118397N,Bus,UTA,1,Northbound,18397,RIDGE AV & CALUMET ST,40.009936,-75.196456,Fall 2016,4,2
-8370569.14529747,4867248.47714288,657,1226N,Bus,UTA,1,Northbound,226,RIDGE AV & MIDVALE AV,40.008988,-75.194102,Fall 2016,13,12
-8370322.01602791,4867122.61661269,658,118400N,Bus,UTA,1,Northbound,18400,RIDGE AV & FERRY RD,40.008122,-75.191882,Fall 2016,0,0
-8370155.48206969,4867048.20559533,659,130916N,Bus,UTA,1,Northbound,30916,RIDGE AV & FERRY RD - FS,40.00761,-75.190386,Fall 2016,1,1
-8369996.9631148,4866965.22052917,660,121957N,Bus,UTA,1,Northbound,21957,RIDGE AV & SCOTTS LN - MBNS,40.007039,-75.188962,Fall 2016,0,1
-8369813.1746355,4866852.87933007,661,131617N,Bus,UTA,1,Northbound,31617,ALLEGHENY AV & RIDGE AV - FS,40.006266,-75.187311,Fall 2016,7,5
-8369669.90645085,4866814.22146259,662,122386N,Bus,UTA,1,Northbound,22386,ALLEGHENY AV & 35TH ST,40.006,-75.186024,Fall 2016,6,10
-8369498.36311553,4866784.42884795,663,115005N,Bus,UTA,1,Northbound,15005,ALLEGHENY AV & 34TH ST,40.005795,-75.184483,Fall 2016,5,2
-8369347.41388602,4866758.41488199,664,115006N,Bus,UTA,1,Northbound,15006,ALLEGHENY AV & 33RD ST,40.005616,-75.183127,Fall 2016,8,6
-8369170.74985413,4866732.54631308,665,115007N,Bus,UTA,1,Northbound,15007,ALLEGHENY AV & 32ND ST,40.005438,-75.18154,Fall 2016,2,2
-8369008.33471706,4866711.32832377,666,124646N,Bus,UTA,1,Northbound,24646,ALLEGHENY AV & NAPA ST,40.005292,-75.180081,Fall 2016,8,6
-8368790.70511256,4866723.97191468,667,116537N,Bus,UTA,1,Northbound,16537,HUNTING PARK AV & HENRY AV -,40.005379,-75.178126,Fall 2016,36,11
-8368650.33123467,4866809.42557224,668,116538N,Bus,UTA,1,Northbound,16538,HUNTING PARK AV & 29TH ST,40.005967,-75.176865,Fall 2016,25,1
-8368368.69292296,4866972.05114762,669,122397N,Bus,UTA,1,Northbound,22397,HUNTING PARK AV & WESTMORELA,40.007086,-75.174335,Fall 2016,4,2
-8368095.40357307,4867099.94444672,670,1268N,Bus,UTA,1,Northbound,268,HUNTING PARK AV & FOX ST - F,40.007966,-75.17188,Fall 2016,12,7
-8367930.65072669,4867171.88515199,671,122400N,Bus,UTA,1,Northbound,22400,HUNTING PARK AV & STOKELY ST,40.008461,-75.1704,Fall 2016,8,3
-8367686.41576389,4867294.25821675,672,122401N,Bus,UTA,1,Northbound,22401,HUNTING PARK AV & 24TH ST,40.009303,-75.168206,Fall 2016,1,1
-8367474.24081444,4867409.36585014,673,121198N,Bus,UTA,1,Northbound,21198,HUNTING PARK AV & PACIFIC ST,40.010095,-75.1663,Fall 2016,74,41
-8366865.76847776,4867779.11455657,674,122403N,Bus,UTA,1,Northbound,22403,HUNTING PARK AV & 20TH ST,40.012639,-75.160834,Fall 2016,9,5
-8366427.94892047,4868042.62705721,675,123266N,Bus,UTA,1,Northbound,23266,HUNTING PARK AV & 18TH ST,40.014452,-75.156901,Fall 2016,25,17
-8366107.79406495,4868234.92438108,676,122404N,Bus,UTA,1,Northbound,22404,HUNTING PARK AV & GERMANTOWN,40.015775,-75.154025,Fall 2016,51,15
-8365652.27470863,4868507.02492307,677,122405N,Bus,UTA,1,Northbound,22405,HUNTING PARK AV & BROAD ST,40.017647,-75.149933,Fall 2016,68,40
-8365522.58750185,4868582.31901975,678,14N,Bus,UTA,1,Northbound,4,ROOSEVELT BLVD & BROAD ST -,40.018165,-75.148768,Fall 2016,106,15
-8364586.39058428,4868959.23416128,679,122406N,Bus,UTA,1,Northbound,22406,ROOSEVELT BLVD & 9TH ST,40.020758,-75.140358,Fall 2016,40,15
-8364062.07578264,4869253.014052,680,123308N,Bus,UTA,1,Northbound,23308,ROOSEVELT BLVD & WYOMING AV,40.022779,-75.135648,Fall 2016,5,6
-8363834.20478499,4869347.21152489,681,15N,Bus,UTA,1,Northbound,5,ROOSEVELT BLVD & 5TH ST,40.023427,-75.133601,Fall 2016,76,34
-8362938.19420359,4869573.26003608,682,122407N,Bus,UTA,1,Northbound,22407,ROOSEVELT BLVD & MASCHER ST,40.024982,-75.125552,Fall 2016,16,13
-8362734.25689646,4869614.10922345,683,123311N,Bus,UTA,1,Northbound,23311,ROOSEVELT BLVD & FRONT ST,40.025263,-75.12372,Fall 2016,6,5
-8362547.68542989,4869650.59742988,684,122408N,Bus,UTA,1,Northbound,22408,ROOSEVELT BLVD & RISING SUN,40.025514,-75.122044,Fall 2016,47,14
-8361954.35254396,4869761.37121368,685,122409N,Bus,UTA,1,Northbound,22409,ROOSEVELT BLVD & C ST - FS,40.026276,-75.116714,Fall 2016,41,19
-8360017.61604314,4869941.34490742,686,123319N,Bus,UTA,1,Northbound,23319,ROOSEVELT BLVD & LANGDON ST,40.027514,-75.099316,Fall 2016,53,44
-8358923.9020461,4870146.61776009,687,17N,Bus,UTA,1,Northbound,7,ROOSEVELT BLVD & PRATT S,40.028926,-75.089491,Fall 2016,17,34
-8358740.33620578,4870266.99220254,688,122474N,Bus,UTA,1,Northbound,22474,ROOSEVELT BLVD & BRIDGE ST,40.029754,-75.087842,Fall 2016,5,6
-8358507.12187257,4870419.64305343,689,122475N,Bus,UTA,1,Northbound,22475,ROOSEVELT BLVD & SANGER ST,40.030804,-75.085747,Fall 2016,6,15
-8358273.90753936,4870540.74773344,690,122477N,Bus,UTA,1,Northbound,22477,ROOSEVELT BLVD & CHELTENHAM,40.031637,-75.083652,Fall 2016,21,24
-8358060.06279754,4870609.9510718,691,122478N,Bus,UTA,1,Northbound,22478,ROOSEVELT BLVD & VAN KIRK ST,40.032113,-75.081731,Fall 2016,5,6
-8357770.29816301,4870703.57988656,692,122596N,Bus,UTA,1,Northbound,22596,ROOSEVELT BLVD & COMLY ST,40.032757,-75.079128,Fall 2016,2,2
-8357276.48490185,4870860.01758069,693,122479N,Bus,UTA,1,Northbound,22479,ROOSEVELT BLVD & DEVEREAUX S,40.033833,-75.074692,Fall 2016,4,6
-8356974.36380384,4870956.70196213,694,122480N,Bus,UTA,1,Northbound,22480,ROOSEVELT BLVD & ROBBINS AV,40.034498,-75.071978,Fall 2016,2,14
-8356736.80801048,4871032.74161915,695,122481N,Bus,UTA,1,Northbound,22481,ROOSEVELT BLVD & LEVICK ST,40.035021,-75.069844,Fall 2016,6,8
-8356450.0490022,4871129.57307812,696,122482N,Bus,UTA,1,Northbound,22482,ROOSEVELT BLVD & HELLERMAN S,40.035687,-75.067268,Fall 2016,1,4
-8356190.67458865,4871221.89824773,697,122483N,Bus,UTA,1,Northbound,22483,ROOSEVELT BLVD & MAGEE AV,40.036322,-75.064938,Fall 2016,13,9
-8355968.25824605,4871334.14354886,698,122484N,Bus,UTA,1,Northbound,22484,ROOSEVELT BLVD & UNRUH AV,40.037094,-75.06294,Fall 2016,8,5
-8355634.85637112,4871632.93742862,699,122486N,Bus,UTA,1,Northbound,22486,ROOSEVELT BLVD & LONGSHORE A,40.039149,-75.059945,Fall 2016,4,3
-8355491.03158902,4871783.71907261,700,122487N,Bus,UTA,1,Northbound,22487,ROOSEVELT BLVD & TYSON AV,40.040186,-75.058653,Fall 2016,5,14
-8355250.24753043,4872061.87869153,701,122488N,Bus,UTA,1,Northbound,22488,ROOSEVELT BLVD & FRIENDSHIP,40.042099,-75.05649,Fall 2016,2,12
-8354999.77867614,4872356.91381049,702,18N,Bus,UTA,1,Northbound,8,ROOSEVELT BLVD & COTTMAN AV,40.044128,-75.05424,Fall 2016,61,76
-8354805.19220624,4872682.20420507,703,122490N,Bus,UTA,1,Northbound,22490,ROOSEVELT BLVD & GUILFORD ST,40.046365,-75.052492,Fall 2016,2,4
-8354596.24552202,4873223.60298974,704,122491N,Bus,UTA,1,Northbound,22491,ROOSEVELT BLVD & REVERE ST -,40.050088,-75.050615,Fall 2016,2,5
-8354525.89160384,4873433.01576874,705,122494N,Bus,UTA,1,Northbound,22494,ROOSEVELT BLVD & HARTEL AV,40.051528,-75.049983,Fall 2016,0,1
-8354376.94612516,4873761.1046848,706,122495N,Bus,UTA,1,Northbound,22495,ROOSEVELT BLVD & RYAN AV,40.053784,-75.048645,Fall 2016,2,4
-8354139.16769282,4874124.69108119,707,122498N,Bus,UTA,1,Northbound,22498,ROOSEVELT BLVD & RHAWN ST,40.056284,-75.046509,Fall 2016,20,21
-8354023.84070036,4874294.27233771,708,122499N,Bus,UTA,1,Northbound,22499,ROOSEVELT BLVD & STANWOOD ST,40.05745,-75.045473,Fall 2016,0,0
-8353912.0759316,4874466.47445596,709,19N,Bus,UTA,1,Northbound,9,ROOSEVELT BLVD & HOLME AV,40.058634,-75.044469,Fall 2016,10,15
-8353813.33554327,4874697.29398166,710,125867N,Bus,UTA,1,Northbound,25867,ROOSEVELT BLVD & HOFFNAGLE S,40.060221,-75.043582,Fall 2016,1,8
-8353680.86534923,4875036.76989489,711,122503N,Bus,UTA,1,Northbound,22503,ROOSEVELT BLVD & STRAHLE ST,40.062555,-75.042392,Fall 2016,7,8
-8353340.33902689,4875866.01852889,712,122509N,Bus,UTA,1,Northbound,22509,ROOSEVELT BLVD & WINCHESTER,40.068256,-75.039333,Fall 2016,0,3
-8353144.86200106,4876239.1375959,713,122511N,Bus,UTA,1,Northbound,22511,ROOSEVELT BLVD & WOODWARD ST,40.070821,-75.037577,Fall 2016,3,11
-8352940.59073545,4876550.88098606,714,122512N,Bus,UTA,1,Northbound,22512,ROOSEVELT BLVD & TREMONT ST,40.072964,-75.035742,Fall 2016,1,5
-8352842.96354203,4876694.90014374,715,122513N,Bus,UTA,1,Northbound,22513,ROOSEVELT BLVD & WELSH RD,40.073954,-75.034865,Fall 2016,12,53
-8352595.50031399,4877033.7171051,716,122515N,Bus,UTA,1,Northbound,22515,ROOSEVELT BLVD & GOODNAW ST,40.076283,-75.032642,Fall 2016,3,11
-8352349.70687832,4877370.07241135,717,122517N,Bus,UTA,1,Northbound,22517,ROOSEVELT BLVD & MICHENER AV,40.078595,-75.030434,Fall 2016,1,5
-8352144.09977883,4877650.28023134,718,121200N,Bus,UTA,1,Northbound,21200,ROOSEVELT BLVD & GRANT AV,40.080521,-75.028587,Fall 2016,8,37
-8351866.91424675,4878020.4111213,719,122520N,Bus,UTA,1,Northbound,22520,ROOSEVELT BLVD & FULMER ST,40.083065,-75.026097,Fall 2016,4,24
-8351717.5234901,4878222.35943521,720,122521N,Bus,UTA,1,Northbound,22521,ROOSEVELT BLVD & LOTT ST,40.084453,-75.024755,Fall 2016,1,5
-8351587.72496384,4878397.68533771,721,122522N,Bus,UTA,1,Northbound,22522,ROOSEVELT BLVD & BOWLER ST -,40.085658,-75.023589,Fall 2016,0,3
-8351251.54010164,4878851.94663574,722,122524N,Bus,UTA,1,Northbound,22524,ROOSEVELT BLVD & CONWELL AV,40.08878,-75.020569,Fall 2016,1,2
-8350655.75818692,4879655.75790691,723,122525N,Bus,UTA,1,Northbound,22525,ROOSEVELT BLVD & RED LION RD,40.094304,-75.015217,Fall 2016,12,119
-8350262.13246747,4880084.4645263,724,122526N,Bus,UTA,1,Northbound,22526,ROOSEVELT BLVD & TOMLINSON R,40.09725,-75.011681,Fall 2016,1,17
-8349869.61994294,4880444.35376076,725,122537N,Bus,UTA,1,Northbound,22537,ROOSEVELT BLVD & HALDEMAN AV,40.099723,-75.008155,Fall 2016,1,23
-8349608.68705652,4880674.1483511,726,122538N,Bus,UTA,1,Northbound,22538,ROOSEVELT BLVD & PLAZA DR,40.101302,-75.005811,Fall 2016,1,11
-8349461.30005071,4880801.63644031,727,125924N,Bus,UTA,1,Northbound,25924,ROOSEVELT BLVD & PLAZA DR -,40.102178,-75.004487,Fall 2016,0,1
-8349285.19261627,4880955.46843189,728,122539N,Bus,UTA,1,Northbound,22539,ROOSEVELT BLVD & BENNETT RD,40.103235,-75.002905,Fall 2016,0,7
-8349055.31786778,4881014.55685205,729,111N,Bus,UTA,1,Northbound,11,COMLY RD & ROOSEVELT BLVD -,40.103641,-75.00084,Fall 2016,1,11
-8348941.77198718,4880888.66692342,730,127413N,Bus,UTA,1,Northbound,27413,COMLY RD & NESTOR RD,40.102776,-74.99982,Fall 2016,0,2
-8348812.0847804,4880693.79538114,731,117N,Bus,UTA,1,Northbound,17,COMLY RD & CAROLINE RD,40.101437,-74.998655,Fall 2016,0,3
-8348654.45638144,4880446.82777165,732,127414N,Bus,UTA,1,Northbound,27414,COMLY RD & CAROLINE RD - MBF,40.09974,-74.997239,Fall 2016,0,0
-8348585.9948946,4880239.4495927,733,122598N,Bus,UTA,1,Northbound,22598,COMLY RD & NORCOM RD,40.098315,-74.996624,Fall 2016,0,2
-8348048.43307356,4879836.63898639,734,122546N,Bus,UTA,1,Northbound,22546,COMLY RD & THORNTON RD,40.095547,-74.991795,Fall 2016,1,5
-8347974.73957065,4879461.92923452,735,122890N,Bus,UTA,1,Northbound,22890,DECATUR RD & COMLY RD - MBFS,40.092972,-74.991133,Fall 2016,1,12
-8348280.31157288,4879201.16871709,736,122549N,Bus,UTA,1,Northbound,22549,DECATUR RD & DARNELL RD - FS,40.09118,-74.993878,Fall 2016,1,3
-8348545.36328046,4878826.19199478,737,127415N,Bus,UTA,1,Northbound,27415,DRUMMOND RD & DECATUR RD - F,40.088603,-74.996259,Fall 2016,0,2
-8348493.26575877,4878620.01177479,738,127416N,Bus,UTA,1,Northbound,27416,DRUMMOND RD & DECATUR RD - M,40.087186,-74.995791,Fall 2016,0,6
-8348506.29013919,4878270.22819106,739,127417N,Bus,UTA,1,Northbound,27417,DRUMMOND RD & 10430 - MBFS,40.084782,-74.995908,Fall 2016,0,3
-8348630.7453299,4878028.12232857,740,122552N,Bus,UTA,1,Northbound,22552,DRUMMOND RD & RED LION RD -,40.083118,-74.997026,Fall 2016,0,5
-8348844.47875222,4877890.77644113,741,122553N,Bus,UTA,1,Northbound,22553,DRUMMOND RD & RED LION RD,40.082174,-74.998946,Fall 2016,1,5
-8349060.32724487,4878088.50274401,742,120423N,Bus,UTA,1,Northbound,20423,RED LION RD & DECATUR RD - M,40.083533,-75.000885,Fall 2016,4,51
-8348878.6538359,4878546.67841938,743,112N,Bus,UTA,1,Northbound,12,DECATUR RD & DRUMMOND RD,40.086682,-74.999253,Fall 2016,0,12
-8348622.95296554,4878905.92974453,744,122887N,Bus,UTA,1,Northbound,22887,DECATUR RD & DRUMMOND RD,40.089151,-74.996956,Fall 2016,0,0
-8348262.72309334,4879247.58707921,745,122888N,Bus,UTA,1,Northbound,22888,DECATUR RD & DARNELL RD,40.091499,-74.99372,Fall 2016,0,0
-8347945.90782254,4879532.06800079,746,131366N,Bus,UTA,1,Northbound,31366,DECATUR RD & COMLY RD - MBNS,40.093454,-74.990874,Fall 2016,0,0
-8347876.77841876,4879693.01069899,747,122943N,Bus,UTA,1,Northbound,22943,COMLY RD & DECATUR RD - FS,40.09456,-74.990253,Fall 2016,0,0
